index,origi,name,is_slack,area,lat,lon,n_neighbors,nominal_voltage_kv
0,123,J C McNeil,0,0,44.492,-73.208,1,138
1,187,9001043100,0,0,41.11,-73.457,1,138
2,239,9001071000,0,0,41.172,-73.218,1,230
3,338,9001245500,0,1,41.275,-73.516,1,138
4,845,9011690300,0,0,41.293,-72.925,1,138
5,1380,25003913100,0,0,42.372,-73.276,1,138
6,1761,25013810602,0,0,42.173,-72.538,1,230
7,3338,50003971200,0,0,42.884,-73.193,1,138
8,3362,50007002200,0,0,44.546,-73.154,2,345
9,3433,50021962700,0,0,43.62,-73.017,1,345
10,3502,Indian Point 2,1,1,41.271,-73.953,3,345
11,3503,Indian Point 3,0,1,41.271,-73.953,3,345
12,3504,Oswego Harbor Power,0,2,43.459,-76.532,4,345
13,3505,Charles Poletti,0,3,40.776,-73.911,2,230
14,3506,James A Fitzpatrick,0,4,43.521,-76.408,3,345
15,3507,Somerset Operating Co LLC,0,5,43.359,-78.605,3,230
16,3508,Nine Mile Point Nuclear Station,0,4,43.521,-76.41,6,345
17,3509,Bowline Point,0,1,41.204,-73.969,8,345
18,3510,Roseton Generating Facility,0,1,41.574,-73.966,4,345
19,3511,R E Ginna Nuclear Power Plant,0,2,43.278,-77.31,6,138
20,3512,Selkirk Cogen,0,6,42.574,-73.859,3,345
21,3513,Northport,0,7,40.924,-73.342,2,345
22,3514,Arthur Kill Generating Station,0,3,40.592,-74.2,2,345
23,3515,E F Barrett,0,7,40.617,-73.648,2,230
24,3516,Athens Generating Plant,0,6,42.273,-73.849,3,345
25,3517,Blenheim Gilboa,0,6,42.442,-74.448,3,345
26,3518,Caithness Long Island Energy Center,0,7,40.814,-72.94,3,138
27,3519,East River,0,3,40.728,-73.974,6,138
28,3520,Astoria Generating Station,0,3,40.788,-73.913,6,345
29,3521,Bethpage Power Plant,0,7,40.747,-73.499,3,345
30,3522,Empire Generating Co  LLC,0,6,42.625,-73.75,2,345
31,3523,Ravenswood,0,3,40.759,-73.946,4,345
32,3524,Astoria Energy,0,3,40.782,-73.896,4,230
33,3525,500MW CC,0,3,40.789,-73.907,3,345
34,3526,Sithe Independence Station,0,4,43.495,-76.451,4,345
35,3527,Cayuga Operating Company,0,4,42.603,-76.634,5,138
36,3528,Astoria Gas Turbines,0,3,40.787,-73.905,5,345
37,3529,RED-Rochester LLC,0,2,43.199,-77.632,3,138
38,3530,Noble Wethersfield Windpark LLC,0,2,42.67,-78.228,1,138
39,3531,Brooklyn Navy Yard Cogeneration,0,3,40.699,-73.976,4,138
40,3532,Glenwood,0,7,40.827,-73.647,6,138
41,3533,Greenidge Generation LLC,0,4,42.679,-76.948,3,138
42,3534,High Sheldon Wind Farm,0,5,42.779,-78.427,1,138
43,3535,Richard M Flynn,0,7,40.816,-73.064,4,138
44,3536,Noble Chateaugay Windpark LLC,0,8,44.892,-74.03,2,138
45,3537,Noble Clinton Windpark LLC,0,8,44.891,-74.006,4,138
46,3538,Noble Bliss Windpark LLC,0,2,42.537,-78.305,2,138
47,3539,Far Rockaway,0,3,40.611,-73.761,3,138
48,3540,Noble Altona Windpark LLC,0,8,44.822,-73.651,2,138
49,3541,Dunkirk Generating Plant,0,5,42.491,-79.347,7,138
50,3542,Saranac Facility,0,8,44.713,-73.456,2,345
51,3543,Indeck Corinth Energy Center,0,6,43.25,-73.813,3,138
52,3544,Cohocton Wind Project,0,4,42.45,-77.52,2,138
53,3545,Wading River,0,7,40.957,-72.877,4,138
54,3546,Covanta Hempstead,0,7,40.739,-73.591,4,345
55,3547,Danskammer Generating Station,0,1,41.571,-73.975,4,345
56,3548,Massena Energy Facility,0,8,44.95,-74.893,2,138
57,3549,Batavia Power Plant,0,5,42.983,-78.159,2,138
58,3550,CH Resources Syracuse,0,4,43.066,-76.214,2,138
59,3551,Sterling Power Plant,0,9,43.08,-75.601,2,138
60,3552,Plant No 2 Freeport,0,7,40.645,-73.568,2,138
61,3555,Wheelabrator Westchester,0,10,41.277,-73.942,2,138
62,3556,Indeck Oswego Energy Center,0,4,43.472,-76.493,3,138
63,3557,Robert Moses Power Dam,0,0,45.004,-74.799,2,345
64,3558,Holtsville,0,7,40.817,-73.066,3,230
65,3559,Indeck Silver Springs Energy Center,0,2,42.654,-78.077,1,138
66,3561,Fortistar North Tonawanda,0,5,43.048,-78.854,3,345
67,3562,Nassau Energy Corp,0,7,40.726,-73.589,3,138
68,3563,Hawkeye Energy Greenport LLC,0,7,41.106,-72.376,1,138
69,3564,Port Jefferson,0,7,40.95,-73.079,3,230
70,3565,Glenwood Landing,0,7,40.828,-73.648,4,138
71,3566,Shoreham,0,7,40.962,-72.865,1,138
72,3567,West Babylon,0,7,40.695,-73.349,1,138
73,3568,Edgewood Energy LLC,0,7,40.786,-73.293,1,138
74,3569,Shoreham Energy LLC,0,7,40.957,-72.866,2,138
75,3570,Pinelawn Power LLC,0,7,40.737,-73.388,1,138
76,3571,Rensselaer Cogen,0,6,42.625,-73.75,3,345
77,3572,Hudson Avenue,0,3,40.705,-73.981,2,138
78,3573,Carr Street Generating Station,0,4,43.061,-76.082,3,138
79,3574,Lockport Energy Associates LP,0,5,43.162,-78.745,3,345
80,3576,S A Carlson,0,5,42.093,-79.248,2,138
81,3577,Spier Falls,0,6,43.234,-73.756,2,138
82,3578,Vernon Boulevard,0,3,40.754,-73.951,2,138
83,3579,Joseph J Seymour Power Project,0,3,40.663,-74,1,138
84,3581,Hell Gate,0,3,40.799,-73.909,4,138
85,3582,Harlem River Yard,0,3,40.799,-73.916,2,138
86,3583,North 1st,0,3,40.717,-73.966,1,138
87,3584,Pouch,0,3,40.618,-74.068,2,138
88,3585,Castleton Energy Center,0,6,42.538,-73.743,2,138
89,3586,Stony Brook Cogen Plant,0,7,40.917,-73.129,3,138
90,3587,Hillburn,0,1,41.127,-74.165,4,138
91,3588,Indeck Olean Energy Center,0,5,42.086,-78.454,2,138
92,3590,Ticonderoga Mill,0,6,43.891,-73.397,1,138
93,3592,Allegany Cogen,0,2,42.503,-78.069,1,138
94,3593,Shoemaker,0,1,41.428,-74.419,3,345
95,3594,Carthage Energy LLC,0,9,43.984,-75.623,1,138
96,3595,Onondaga County Resource Recovery,0,4,43.005,-76.115,3,138
97,3597,Dutch Hill Wind Project,0,4,42.546,-77.497,1,138
98,3598,74th Street,0,3,40.768,-73.951,2,138
99,3599,Sherman Island,0,6,43.28,-73.709,1,138
100,3600,Bennetts Bridge,0,4,43.532,-75.953,2,138
101,3602,Stewarts Bridge,0,6,43.298,-73.885,3,138
102,3603,Munnsville Wind Farm LLC,0,9,42.909,-75.57,2,138
103,3604,Maple Ridge Wind Farm,0,9,43.785,-75.575,2,138
104,3606,Charles P Keller,0,7,40.658,-73.641,3,138
105,3609,Ogdensburg Power,0,9,44.726,-75.442,1,138
106,3610,Stark,0,9,44.455,-74.761,3,138
107,3612,Neversink,0,9,41.819,-74.636,2,230
108,3613,Rainbow Falls Hydro,0,9,44.518,-74.823,1,138
109,3614,Covanta Niagara LP,0,5,43.084,-79.006,2,138
110,3615,Curtis Palmer Hydroelectric,0,6,43.247,-73.828,1,138
111,3616,Five Falls,0,9,44.527,-74.849,3,138
112,3617,Lederle Laboratories,0,1,41.077,-74.018,2,138
113,3618,E J West,0,6,43.319,-73.921,1,138
114,3619,Narrows Gas Turbines Generating,0,3,40.649,-74.021,4,138
115,3620,Hudson Falls Hydroelectric Project,0,6,43.296,-73.596,1,138
116,3622,South Cairo,0,1,42.291,-73.986,1,138
117,3625,South Colton,0,9,44.513,-74.883,1,138
118,3627,Gowanus Gas Turbines Generating,0,3,40.663,-74.005,3,345
119,3628,Lewiston Niagara,0,5,43.143,-79.022,3,138
120,3630,36001000100,0,6,42.669,-73.736,2,138
121,3631,36001000200,0,6,42.664,-73.752,2,138
122,3651,36001002100,0,6,42.65,-73.778,1,138
123,3654,36001002500,0,6,42.641,-73.755,3,138
124,3655,36001002600,0,6,42.631,-73.765,2,138
125,3664,36001013503,0,6,42.784,-73.737,2,138
126,3666,36001013506,0,6,42.747,-73.73,1,138
127,3670,36001013602,0,6,42.691,-73.727,1,138
128,3671,36001013703,0,6,42.745,-73.815,2,138
129,3675,36001013801,0,6,42.746,-73.879,2,138
130,3678,36001013902,0,6,42.723,-73.827,1,138
131,3684,36001014203,0,6,42.606,-73.844,2,138
132,3685,36001014301,0,6,42.562,-73.779,2,138
133,3686,36001014302,0,6,42.565,-73.84,2,138
134,3687,36001014401,0,6,42.495,-73.882,2,138
135,3693,36001014607,0,6,42.728,-73.91,2,138
136,3696,36001014611,0,6,42.691,-73.935,2,138
137,3707,36003950300,0,2,42.466,-78.196,2,138
138,3718,36005000100,0,3,40.792,-73.892,2,138
139,3722,36005001900,0,3,40.805,-73.925,3,345
140,3726,36005002500,0,3,40.807,-73.921,2,138
141,3727,36005002701,0,3,40.806,-73.917,2,138
142,3728,36005002702,0,3,40.807,-73.916,2,138
143,3729,36005002800,0,3,40.822,-73.878,2,138
144,3736,36005004001,0,3,40.828,-73.858,2,138
145,3738,36005004200,0,3,40.824,-73.862,2,138
146,3745,36005005100,0,3,40.813,-73.927,1,138
147,3753,36005006200,0,3,40.833,-73.875,3,138
148,3762,36005007200,0,3,40.831,-73.861,3,138
149,3763,36005007300,0,3,40.815,-73.909,1,138
150,3769,36005007900,0,3,40.816,-73.905,2,138
151,3770,36005008300,0,3,40.814,-73.902,2,138
152,3778,36005009300,0,3,40.814,-73.895,3,138
153,3784,36005011800,0,3,40.813,-73.805,2,138
154,3794,36005013200,0,3,40.817,-73.819,2,138
155,3797,36005013800,0,3,40.822,-73.81,2,138
156,3800,36005014400,0,3,40.821,-73.823,2,138
157,3801,36005014500,0,3,40.832,-73.907,1,138
158,3806,36005015200,0,3,40.826,-73.825,2,138
159,3816,36005016500,0,3,40.843,-73.9,3,138
160,3818,36005016700,0,3,40.84,-73.902,1,138
161,3827,36005018102,0,3,40.832,-73.918,2,138
162,3828,36005018301,0,3,40.829,-73.921,3,138
163,3830,36005018400,0,3,40.837,-73.829,2,138
164,3838,36005020000,0,3,40.843,-73.846,3,138
165,3842,36005020501,0,3,40.847,-73.924,3,138
166,3846,36005021001,0,3,40.841,-73.858,4,138
167,3847,36005021002,0,3,40.838,-73.857,2,138
168,3849,36005021200,0,3,40.836,-73.859,2,138
169,3851,36005021302,0,3,40.843,-73.92,2,138
170,3854,36005021601,0,3,40.838,-73.865,2,138
171,3857,36005021800,0,3,40.837,-73.87,2,138
172,3858,36005021900,0,3,40.84,-73.92,2,138
173,3861,36005022102,0,3,40.838,-73.916,2,138
174,3862,36005022200,0,3,40.836,-73.855,2,138
175,3867,36005022500,0,3,40.84,-73.911,3,138
176,3870,36005022703,0,3,40.844,-73.91,2,138
177,3871,36005022800,0,3,40.853,-73.864,2,138
178,3872,36005022901,0,3,40.846,-73.907,2,138
179,3875,36005023100,0,3,40.846,-73.902,3,138
180,3878,36005023302,0,3,40.848,-73.905,3,138
181,3879,36005023501,0,3,40.852,-73.905,2,138
182,3880,36005023502,0,3,40.851,-73.903,3,138
183,3883,36005023703,0,3,40.86,-73.9,2,138
184,3886,36005023900,0,3,40.859,-73.903,3,138
185,3888,36005024100,0,3,40.853,-73.906,2,138
186,3890,36005024400,0,3,40.846,-73.858,2,138
187,3895,36005024800,0,3,40.855,-73.858,2,138
188,3897,36005025000,0,3,40.852,-73.856,2,138
189,3898,36005025100,0,3,40.857,-73.908,3,138
190,3899,36005025200,0,3,40.847,-73.855,2,138
191,3900,36005025300,0,3,40.861,-73.905,2,138
192,3901,36005025400,0,3,40.848,-73.852,3,138
193,3902,36005025500,0,3,40.861,-73.909,2,138
194,3903,36005025600,0,3,40.844,-73.85,2,138
195,3905,36005026100,0,3,40.867,-73.906,4,138
196,3906,36005026300,0,3,40.865,-73.904,2,138
197,3907,36005026400,0,3,40.842,-73.832,2,138
198,3908,36005026500,0,3,40.866,-73.9,2,138
199,3909,36005026601,0,3,40.847,-73.834,3,138
200,3910,36005026602,0,3,40.846,-73.831,2,138
201,3914,36005027300,0,3,40.874,-73.903,2,138
202,3917,36005027600,0,3,40.855,-73.821,3,138
203,3918,36005027700,0,3,40.878,-73.901,2,138
204,3919,36005027900,0,3,40.882,-73.897,3,138
205,3920,36005028100,0,3,40.884,-73.891,2,138
206,3921,36005028300,0,3,40.881,-73.902,3,138
207,3922,36005028400,0,3,40.849,-73.839,2,138
208,3923,36005028500,0,3,40.886,-73.903,2,138
209,3924,36005028600,0,3,40.849,-73.848,2,138
210,3926,36005028800,0,3,40.854,-73.851,2,138
211,3927,36005028900,0,3,40.88,-73.907,2,138
212,3929,36005029302,0,3,40.879,-73.916,2,138
213,3930,36005029500,0,3,40.885,-73.909,2,138
214,3931,36005029600,0,3,40.855,-73.845,3,138
215,3932,36005029700,0,3,40.885,-73.912,4,138
216,3933,36005030000,0,3,40.852,-73.831,3,138
217,3934,36005030100,0,3,40.883,-73.918,2,138
218,3935,36005030200,0,3,40.864,-73.822,2,138
219,3937,36005030900,0,0,40.898,-73.915,2,138
220,3939,36005031200,0,3,40.862,-73.842,3,138
221,3940,36005031400,0,3,40.862,-73.846,2,138
222,3941,36005031600,0,3,40.862,-73.849,2,138
223,3942,36005031800,0,3,40.862,-73.852,2,138
224,3943,36005031900,0,11,40.913,-73.907,2,138
225,3944,36005032300,0,11,40.905,-73.908,3,138
226,3945,36005032400,0,3,40.861,-73.86,4,138
227,3946,36005032600,0,3,40.862,-73.855,2,138
228,3948,36005033000,0,3,40.862,-73.866,3,138
229,3950,36005033202,0,3,40.863,-73.869,2,138
230,3951,36005033400,0,3,40.858,-73.875,2,138
231,3953,36005033600,0,3,40.868,-73.869,4,138
232,3954,36005033700,0,11,40.906,-73.903,4,138
233,3955,36005033800,0,3,40.868,-73.866,2,138
234,3958,36005034300,0,11,40.91,-73.898,2,138
235,3959,36005034400,0,3,40.868,-73.857,2,138
236,3960,36005034500,0,11,40.904,-73.899,2,138
237,3961,36005034800,0,3,40.869,-73.853,2,138
238,3963,36005035100,0,3,40.895,-73.9,2,138
239,3965,36005035800,0,3,40.874,-73.843,2,138
240,3974,36005036800,0,3,40.875,-73.856,2,138
241,3977,36005037000,0,3,40.873,-73.859,2,138
242,3979,36005037200,0,3,40.874,-73.863,4,138
243,3981,36005037400,0,3,40.875,-73.867,2,138
244,3984,36005037800,0,3,40.88,-73.867,3,138
245,3986,36005038000,0,3,40.878,-73.862,4,138
246,3988,36005038200,0,3,40.877,-73.855,2,138
247,3991,36005038500,0,3,40.856,-73.892,2,138
248,3992,36005038600,0,3,40.88,-73.848,5,138
249,3993,36005038700,0,3,40.858,-73.889,3,138
250,3995,36005038900,0,3,40.856,-73.885,3,138
251,3996,36005039000,0,3,40.881,-73.861,2,138
252,3997,36005039100,0,3,40.853,-73.887,2,138
253,3998,36005039200,0,3,40.883,-73.865,2,138
254,3999,36005039300,0,3,40.853,-73.883,2,138
255,4000,36005039400,0,3,40.886,-73.863,2,138
256,4001,36005039500,0,3,40.848,-73.897,3,138
257,4002,36005039600,0,3,40.884,-73.859,2,138
258,4003,36005039700,0,3,40.862,-73.885,2,138
259,4005,36005039901,0,3,40.864,-73.894,3,138
260,4006,36005039902,0,3,40.86,-73.895,2,138
261,4007,36005040100,0,3,40.865,-73.898,2,138
262,4013,36005040502,0,3,40.866,-73.889,2,138
263,4014,36005040600,0,3,40.888,-73.857,2,138
264,4015,36005040701,0,3,40.872,-73.89,2,138
265,4016,36005040702,0,3,40.869,-73.887,5,138
266,4017,36005040800,0,3,40.89,-73.862,2,138
267,4018,36005040900,0,3,40.877,-73.893,2,138
268,4020,36005041300,0,3,40.874,-73.885,2,138
269,4021,36005041400,0,11,40.904,-73.854,2,138
270,4022,36005041500,0,3,40.87,-73.884,2,138
271,4024,36005041900,0,3,40.877,-73.882,3,138
272,4025,36005042000,0,3,40.893,-73.86,2,138
273,4026,36005042100,0,3,40.881,-73.883,3,138
274,4027,36005042200,0,3,40.891,-73.855,2,138
275,4028,36005042300,0,3,40.877,-73.877,2,138
276,4030,36005042500,0,3,40.871,-73.879,2,138
277,4031,36005042600,0,3,40.891,-73.842,2,138
278,4034,36005042902,0,3,40.877,-73.874,3,138
279,4035,36005043000,0,11,40.893,-73.851,2,138
280,4037,36005043400,0,11,40.898,-73.852,4,138
281,4039,36005043600,0,11,40.897,-73.85,2,138
282,4040,36005044200,0,11,40.904,-73.846,2,138
283,4048,36005045800,0,3,40.886,-73.845,2,138
284,4050,36005046201,0,3,40.874,-73.827,3,345
285,4051,36005046202,0,3,40.879,-73.834,3,230
286,4058,36007000500,0,4,42.108,-75.904,2,138
287,4060,36007000700,0,4,42.109,-75.872,4,138
288,4071,36007011901,0,4,42.368,-75.917,2,138
289,4072,36007011902,0,4,42.28,-75.913,2,138
290,4074,36007012000,0,4,42.282,-76.028,2,138
291,4075,36007012101,0,4,42.209,-75.875,2,138
292,4076,36007012102,0,4,42.175,-75.855,2,138
293,4078,36007012201,0,4,42.154,-75.862,2,138
294,4081,36007012400,0,9,42.092,-75.482,2,138
295,4083,36007012600,0,4,42.089,-75.803,2,138
296,4088,36007013000,0,4,42.124,-76,2,138
297,4104,36007014301,0,4,42.084,-75.999,5,138
298,4106,36007014400,0,4,42.084,-76.035,1,138
299,4126,36009961700,0,5,42.083,-78.436,2,138
300,4129,36011040100,0,2,43.269,-76.656,2,138
301,4130,36011040200,0,2,43.17,-76.539,2,138
302,4131,36011040300,0,2,43.094,-76.644,2,138
303,4132,36011040400,0,4,43.046,-76.545,2,138
304,4134,36011040600,0,4,42.972,-76.512,2,138
305,4136,36011040800,0,4,42.78,-76.409,2,138
306,4137,36011040900,0,4,42.688,-76.348,2,138
307,4141,36011041300,0,4,42.945,-76.583,2,138
308,4147,36011042100,0,4,42.929,-76.583,1,138
309,4153,36013030600,0,5,42.096,-79.218,1,138
310,4156,36013035100,0,5,42.542,-79.145,2,138
311,4160,36013035600,0,5,42.48,-79.346,1,138
312,4165,36013036000,0,5,42.407,-79.353,3,138
313,4167,36013036300,0,5,42.366,-79.467,1,138
314,4172,36013036700,0,5,42.072,-79.625,1,138
315,4179,36013037300,0,5,42.138,-79.231,2,138
316,4182,36013037600,0,5,42.486,-79.119,2,138
317,4183,36015000100,0,4,42.107,-76.803,2,138
318,4188,36015000600,0,4,42.092,-76.815,3,138
319,4194,36015010200,0,4,42.246,-76.847,2,138
320,4196,36015010400,0,4,42.173,-76.838,2,138
321,4197,36015010500,0,4,42.167,-76.824,2,138
322,4198,36015010600,0,4,42.138,-76.844,4,138
323,4205,36017970100,0,9,42.692,-75.488,2,138
324,4206,36017970200,0,9,42.615,-75.748,2,138
325,4207,36017970300,0,9,42.533,-75.527,4,345
326,4209,36017970500,0,9,42.59,-75.422,1,138
327,4210,36017970601,0,9,42.536,-75.556,2,138
328,4213,36017970801,0,9,42.343,-75.518,2,138
329,4215,36017970900,0,9,42.249,-75.54,2,138
330,4219,36019100300,0,8,44.9,-73.664,2,138
331,4220,36019100400,0,8,44.847,-73.879,2,138
332,4221,36019100600,0,8,44.77,-73.523,2,138
333,4223,36019100800,0,8,44.721,-73.466,2,138
334,4231,36019101800,0,9,44.58,-73.8,3,138
335,4232,36019101900,0,8,44.581,-73.58,2,138
336,4240,36021000402,0,6,42.44,-73.685,2,138
337,4243,36021000700,0,6,42.312,-73.651,4,138
338,4245,36021000900,0,6,42.224,-73.532,2,138
339,4247,36021001100,0,6,42.226,-73.79,2,138
340,4249,36021001300,0,6,42.248,-73.788,2,138
341,4250,36021001400,0,6,42.14,-73.795,2,138
342,4252,36021001600,0,6,42.129,-73.551,2,138
343,4254,36021001800,0,1,42.051,-73.71,2,138
344,4258,36023970200,0,4,42.703,-76.172,2,138
345,4259,36023970300,0,4,42.639,-76.184,4,138
346,4260,36023970400,0,4,42.588,-76.12,5,138
347,4261,36023970500,0,4,42.608,-76.17,3,138
348,4262,36023970600,0,4,42.599,-76.174,3,138
349,4267,36023971100,0,4,42.487,-75.966,2,138
350,4268,36023971200,0,4,42.48,-76.162,3,138
351,4272,36025970400,0,9,42.307,-75.277,3,345
352,4274,36025970600,0,9,42.174,-75.127,4,345
353,4281,36025971300,0,9,42.04,-74.961,3,230
354,4282,36025971400,0,9,41.957,-75.163,3,138
355,4283,36027010000,0,1,41.824,-73.553,2,138
356,4288,36027040001,0,1,41.714,-73.563,2,138
357,4289,36027040003,0,1,41.651,-73.585,2,138
358,4293,36027050203,0,1,41.552,-73.812,2,138
359,4296,36027060100,0,1,41.533,-73.964,3,138
360,4298,36027060202,0,1,41.494,-73.939,3,138
361,4304,36027070201,0,1,41.775,-73.929,2,138
362,4306,36027070401,0,1,41.749,-73.913,2,138
363,4312,36027100000,0,1,41.945,-73.542,2,138
364,4315,36027110005,0,1,41.563,-73.599,2,138
365,4316,36027120000,0,1,41.969,-73.652,2,138
366,4320,36027140101,0,1,41.727,-73.916,2,138
367,4334,36027160005,0,1,41.929,-73.908,2,138
368,4335,36027170000,0,1,41.888,-73.692,2,138
369,4340,36027190204,0,1,41.586,-73.88,1,138
370,4344,36027200001,0,1,41.792,-73.673,3,138
371,4346,36027210101,0,1,41.511,-73.965,4,138
372,4350,36027220201,0,1,41.711,-73.924,2,138
373,4356,36027221100,0,1,41.7,-73.918,2,138
374,4357,36027300000,0,1,41.599,-73.918,2,138
375,4363,36029000500,0,5,42.864,-78.863,1,138
376,4378,36029002702,0,5,42.899,-78.834,1,138
377,4379,36029002800,0,5,42.9,-78.821,2,138
378,4381,36029003000,0,5,42.904,-78.806,2,138
379,4434,36029007600,0,5,43.007,-78.863,2,138
380,4437,36029007901,0,5,43.017,-78.844,2,138
381,4438,36029007902,0,5,42.997,-78.839,2,138
382,4441,36029007905,0,5,43.009,-78.836,2,138
383,4442,36029008001,0,5,42.976,-78.834,3,138
384,4445,36029008101,0,5,42.991,-78.865,2,138
385,4447,36029008201,0,5,42.99,-78.879,2,138
386,4448,36029008202,0,5,42.976,-78.88,2,138
387,4450,Indeck Yerkes Energy Center,0,5,42.975,-78.915,1,138
388,4453,36029008700,0,5,42.966,-78.875,1,138
389,4460,36029009009,0,5,43.058,-78.736,2,138
390,4461,36029009010,0,5,43.029,-78.725,3,138
391,4464,36029009107,0,5,43.038,-78.813,1,138
392,4468,36029009113,0,5,43.014,-78.753,1,138
393,4494,36029010500,0,5,42.917,-78.788,1,138
394,4496,36029010700,0,5,42.91,-78.773,3,138
395,4497,36029010803,0,5,42.901,-78.742,5,345
396,4501,36029010808,0,5,42.874,-78.747,2,138
397,4504,36029010902,0,5,42.886,-78.764,2,138
398,4506,36029011100,0,5,42.88,-78.792,1,138
399,4507,36029011200,0,5,42.855,-78.731,3,138
400,4508,36029011300,0,5,42.861,-78.781,2,138
401,4524,36029013001,0,5,42.784,-78.844,2,138
402,4526,36029013101,0,5,42.751,-78.878,2,138
403,4527,36029013102,0,5,42.721,-78.927,2,138
404,4535,36029013701,0,5,42.784,-78.771,2,138
405,4540,36029014101,0,5,42.824,-78.607,2,138
406,4541,36029014102,0,5,42.822,-78.667,2,138
407,4542,36029014204,0,5,42.904,-78.613,2,138
408,4553,36029014604,0,5,43.021,-78.674,2,138
409,4555,36029014702,0,5,42.984,-78.611,2,138
410,4556,36029014801,0,5,43.021,-78.494,2,138
411,4557,36029014803,0,5,43.019,-78.524,2,138
412,4558,36029014901,0,5,42.899,-78.495,3,138
413,4559,36029014903,0,5,42.912,-78.522,2,138
414,4560,36029014904,0,5,42.93,-78.552,2,138
415,4561,36029015001,0,5,42.825,-78.532,3,138
416,4565,36029015102,0,5,42.562,-78.55,2,138
417,4570,36029015401,0,5,42.701,-78.987,2,138
418,4571,36029015402,0,5,42.677,-78.995,2,138
419,4573,36029015503,0,5,42.631,-79.001,2,138
420,4579,36029016100,0,5,42.486,-78.932,2,138
421,4581,36029016300,0,5,42.872,-78.831,4,138
422,4588,36029017000,0,5,42.925,-78.83,3,138
423,4590,36029017200,0,5,43.017,-78.864,2,138
424,4601,36031960598,0,8,44.219,-73.994,2,138
425,4607,36031961200,0,6,43.851,-73.507,2,138
426,4629,36035970600,0,6,43.044,-74.395,1,138
427,4637,36035971400,0,6,43.004,-74.205,2,138
428,4638,36035971500,0,6,43.066,-74.151,1,138
429,4640,36037950100,0,5,43.088,-78.022,2,138
430,4642,36037950300,0,5,43.041,-78.382,3,138
431,4643,36037950400,0,5,43.001,-78.226,3,138
432,4644,36037950500,0,5,43.006,-78.2,3,138
433,4645,36037950600,0,5,43.007,-78.187,2,138
434,4646,36037950700,0,5,42.993,-78.193,2,138
435,4647,36037950800,0,5,43.005,-78.177,2,138
436,4648,36037950900,0,5,43.002,-78.163,2,138
437,4649,36037951000,0,5,42.989,-78.168,2,138
438,4651,36037951200,0,5,42.981,-77.982,1,138
439,4653,36037951400,0,5,42.913,-78.328,2,138
440,4654,36039080100,0,1,42.419,-73.859,2,138
441,4657,36039080300,0,9,42.318,-74.29,2,138
442,4659,36039080402,0,9,42.219,-74.332,2,138
443,4662,West Coxsackie,0,1,42.345,-73.87,3,138
444,4665,36039080900,0,1,42.282,-73.864,2,138
445,4667,36039081101,0,1,42.217,-73.984,2,138
446,4668,36039081102,0,1,42.198,-73.921,2,138
447,4673,36043010100,0,9,42.922,-75.059,2,138
448,4675,36043010202,0,9,43.039,-75.142,1,138
449,4680,36043010701,0,9,43.05,-74.865,2,138
450,4681,36043010702,0,9,43.041,-74.839,2,138
451,4687,36043011301,0,9,43.072,-74.978,2,138
452,4688,36043011302,0,9,43.105,-75.091,2,138
453,4705,36045061300,0,9,43.983,-75.892,2,138
454,4714,36045062400,0,9,43.869,-75.87,2,138
455,4717,36047000100,0,3,40.698,-73.992,2,138
456,4718,36047000200,0,3,40.653,-74.011,2,138
457,4721,36047000502,0,3,40.695,-73.993,2,138
458,4723,36047000900,0,3,40.692,-73.992,2,138
459,4727,36047001800,0,3,40.657,-74.01,3,345
460,4728,36047002000,0,3,40.648,-74.016,2,138
461,4729,36047002100,0,3,40.703,-73.983,3,138
462,4730,36047002200,0,3,40.643,-74.022,2,138
463,4734,36047003100,0,3,40.692,-73.978,2,138
464,4741,36047003900,0,3,40.685,-73.981,2,138
465,4745,36047004500,0,3,40.688,-73.995,1,138
466,4753,36047005300,0,3,40.674,-74.008,3,138
467,4757,36047005800,0,3,40.619,-74.032,2,138
468,4766,36047006800,0,3,40.635,-74.026,2,138
469,4775,36047007800,0,3,40.646,-74.012,3,138
470,4776,36047008000,0,3,40.649,-74.01,3,138
471,4781,36047008800,0,3,40.65,-74.001,3,138
472,4782,36047009000,0,3,40.647,-73.997,2,138
473,4786,36047009800,0,3,40.644,-74.008,2,138
474,4787,36047010000,0,3,40.642,-74.01,2,138
475,4791,36047010600,0,3,40.639,-74.006,2,138
476,4792,36047010800,0,3,40.641,-74.004,2,138
477,4793,36047011000,0,3,40.645,-73.993,2,138
478,4795,36047011400,0,3,40.639,-73.999,4,138
479,4806,36047012901,0,3,40.682,-73.979,2,138
480,4809,36047013100,0,3,40.678,-73.98,2,138
481,4811,36047013300,0,3,40.675,-73.981,2,138
482,4813,36047013500,0,3,40.673,-73.983,2,138
483,4815,36047013700,0,3,40.67,-73.985,3,138
484,4825,36047014900,0,3,40.662,-73.985,2,138
485,4829,36047015300,0,3,40.668,-73.981,4,138
486,4830,36047015400,0,3,40.611,-74.019,2,138
487,4831,36047015500,0,3,40.671,-73.979,2,138
488,4832,36047015700,0,3,40.673,-73.976,2,138
489,4833,36047015900,0,3,40.675,-73.973,2,138
490,4834,36047016000,0,3,40.619,-74.027,2,138
491,4835,36047016100,0,3,40.68,-73.973,2,138
492,4846,36047017200,0,3,40.609,-74.01,2,138
493,4851,36047017800,0,3,40.607,-74.005,2,138
494,4853,36047018000,0,3,40.608,-74.007,2,138
495,4858,36047018501,0,3,40.695,-73.974,2,138
496,4865,36047019300,0,3,40.691,-73.963,2,138
497,4867,36047019500,0,3,40.691,-73.967,2,138
498,4869,36047019700,0,3,40.688,-73.967,2,138
499,4871,36047019900,0,3,40.684,-73.967,2,138
500,4882,36047021100,0,3,40.697,-73.975,2,138
501,4884,36047021300,0,3,40.668,-73.96,2,138
502,4888,36047021700,0,3,40.673,-73.959,2,138
503,4894,36047022400,0,3,40.641,-73.99,2,138
504,4895,36047022600,0,3,40.642,-73.986,2,138
505,4896,36047022700,0,3,40.682,-73.957,2,138
506,4897,36047022800,0,3,40.639,-73.982,1,138
507,4902,36047023300,0,3,40.689,-73.957,3,138
508,4903,36047023400,0,3,40.634,-73.988,2,138
509,4908,36047024100,0,3,40.692,-73.954,2,138
510,4910,36047024300,0,3,40.687,-73.953,2,138
511,4926,36047025901,0,3,40.695,-73.946,2,138
512,4929,36047026100,0,3,40.692,-73.946,1,138
513,4939,36047027100,0,3,40.679,-73.937,2,138
514,4941,36047027300,0,3,40.681,-73.937,2,138
515,4943,36047027500,0,3,40.684,-73.938,2,138
516,4945,36047027700,0,3,40.687,-73.939,2,138
517,4946,36047027800,0,3,40.607,-74.001,2,138
518,4949,36047028100,0,3,40.693,-73.94,2,138
519,4951,36047028300,0,3,40.695,-73.94,3,138
520,4952,36047028400,0,3,40.606,-73.999,2,138
521,4953,36047028501,0,3,40.699,-73.942,2,138
522,4955,36047028600,0,3,40.6,-74.002,2,138
523,4956,36047028700,0,3,40.696,-73.935,1,138
524,4957,36047028800,0,3,40.605,-73.997,2,138
525,4959,36047029000,0,3,40.603,-73.994,3,138
526,4965,36047029600,0,3,40.601,-73.993,2,138
527,4968,36047029900,0,3,40.678,-73.926,2,138
528,4971,36047030200,0,3,40.596,-73.991,2,138
529,4973,36047030400,0,3,40.593,-73.993,2,138
530,4974,36047030500,0,3,40.677,-73.959,2,138
531,4976,36047030700,0,3,40.676,-73.926,2,138
532,4977,36047030800,0,3,40.587,-73.98,4,138
533,4979,36047031100,0,3,40.676,-73.939,3,138
534,4988,36047032500,0,3,40.667,-73.958,2,138
535,4994,36047033100,0,3,40.664,-73.942,2,138
536,4995,36047033300,0,3,40.666,-73.943,2,138
537,4998,36047033700,0,3,40.669,-73.942,2,138
538,4999,36047033900,0,3,40.671,-73.942,2,138
539,5005,36047034700,0,3,40.673,-73.928,2,138
540,5006,36047034800,0,3,40.581,-73.983,1,138
541,5009,36047035100,0,3,40.668,-73.933,2,138
542,5012,36047035400,0,3,40.58,-73.973,1,138
543,5013,36047035500,0,3,40.664,-73.933,2,138
544,5028,36047036900,0,3,40.68,-73.909,2,138
545,5037,36047038100,0,3,40.681,-73.925,2,138
546,5039,36047038300,0,3,40.685,-73.926,2,138
547,5040,36047038500,0,3,40.687,-73.927,2,138
548,5042,36047038700,0,3,40.691,-73.928,2,138
549,5044,36047038900,0,3,40.699,-73.937,2,138
550,5050,36047039500,0,3,40.693,-73.925,2,138
551,5060,36047040500,0,3,40.682,-73.905,2,138
552,5066,36047041100,0,3,40.688,-73.907,2,138
553,5075,36047041900,0,3,40.695,-73.921,3,138
554,5077,36047042100,0,3,40.697,-73.924,2,138
555,5079,36047042300,0,3,40.699,-73.927,2,138
556,5080,36047042400,0,3,40.607,-73.976,1,138
557,5083,36047042700,0,3,40.704,-73.927,2,138
558,5086,36047043000,0,3,40.609,-73.984,2,138
559,5087,36047043100,0,3,40.7,-73.92,2,138
560,5093,36047043700,0,3,40.693,-73.908,2,138
561,5095,36047043900,0,3,40.698,-73.909,2,138
562,5099,36047044300,0,3,40.703,-73.917,4,138
563,5101,36047044500,0,3,40.705,-73.92,2,138
564,5103,36047044700,0,3,40.707,-73.923,3,138
565,5105,36047044900,0,3,40.718,-73.931,5,345
566,5109,36047045400,0,3,40.619,-73.965,1,138
567,5120,36047047600,0,3,40.631,-73.981,2,138
568,5125,36047048200,0,3,40.633,-73.97,2,138
569,5126,36047048400,0,3,40.634,-73.974,3,138
570,5130,36047048900,0,3,40.703,-73.939,2,138
571,5131,36047049000,0,3,40.638,-73.973,3,138
572,5132,36047049100,0,3,40.704,-73.944,3,138
573,5134,36047049300,0,3,40.708,-73.941,4,138
574,5137,36047049600,0,3,40.644,-73.98,2,138
575,5140,36047049900,0,3,40.721,-73.947,3,138
576,5141,36047050000,0,3,40.648,-73.977,2,138
577,5148,36047050700,0,3,40.701,-73.947,1,138
578,5149,36047050801,0,3,40.651,-73.961,2,138
579,5154,36047051002,0,3,40.649,-73.96,1,138
580,5157,36047051300,0,3,40.712,-73.952,3,138
581,5159,36047051500,0,3,40.719,-73.951,3,138
582,5162,36047051700,0,3,40.721,-73.955,2,138
583,5164,36047051900,0,3,40.716,-73.955,4,138
584,5169,36047052700,0,3,40.708,-73.954,2,138
585,5171,36047052900,0,3,40.706,-73.955,2,138
586,5173,36047053100,0,3,40.701,-73.954,2,138
587,5175,36047053300,0,3,40.704,-73.957,2,138
588,5180,36047053900,0,3,40.703,-73.963,2,138
589,5184,36047054500,0,3,40.705,-73.965,2,138
590,5186,36047054700,0,3,40.709,-73.967,3,138
591,5190,36047055100,0,3,40.713,-73.963,2,138
592,5199,36047056100,0,3,40.726,-73.955,4,138
593,5201,36047056300,0,3,40.733,-73.955,2,138
594,5203,36047056500,0,3,40.73,-73.955,2,138
595,5207,36047057000,0,3,40.599,-73.937,1,138
596,5208,36047057100,0,3,40.725,-73.948,2,138
597,5209,36047057200,0,3,40.596,-73.938,2,138
598,5210,36047057300,0,3,40.728,-73.949,2,138
599,5212,36047057500,0,3,40.732,-73.953,2,138
600,5215,36047057900,0,3,40.734,-73.948,5,138
601,5269,36047069601,0,3,40.627,-73.915,2,138
602,5271,36047069800,0,3,40.612,-73.916,2,138
603,5273,36047070201,0,3,40.609,-73.909,3,138
604,5274,36047070202,0,3,40.594,-73.892,2,138
605,5277,36047072200,0,3,40.632,-73.924,1,138
606,5306,36047078200,0,3,40.638,-73.941,1,138
607,5316,36047079802,0,3,40.658,-73.961,2,138
608,5321,36047080800,0,3,40.657,-73.939,2,138
609,5324,36047081600,0,3,40.654,-73.944,3,138
610,5332,36047083200,0,3,40.642,-73.942,2,138
611,5341,36047085400,0,3,40.645,-73.944,3,138
612,5342,36047085600,0,3,40.649,-73.945,2,138
613,5353,36047087800,0,3,40.659,-73.931,2,138
614,5354,36047088000,0,3,40.662,-73.931,2,138
615,5359,36047089000,0,3,40.657,-73.915,2,138
616,5362,36047089600,0,3,40.658,-73.912,2,138
617,5366,36047090600,0,3,40.67,-73.909,2,138
618,5370,36047091600,0,3,40.659,-73.909,2,138
619,5371,36047091800,0,3,40.662,-73.905,2,138
620,5374,36047092400,0,3,40.667,-73.911,2,138
621,5384,36047095000,0,3,40.636,-73.917,3,138
622,5415,36047105801,0,3,40.649,-73.881,3,138
623,5416,36047105804,0,3,40.646,-73.883,1,138
624,5420,36047110400,0,3,40.657,-73.889,3,138
625,5421,36047110600,0,3,40.657,-73.884,2,138
626,5422,36047111000,0,3,40.661,-73.881,2,138
627,5423,36047111600,0,3,40.664,-73.876,2,138
628,5424,36047111800,0,3,40.669,-73.876,2,138
629,5433,36047114201,0,3,40.68,-73.897,2,138
630,5435,36047114400,0,3,40.673,-73.899,2,138
631,5439,36047115600,0,3,40.668,-73.896,2,138
632,5451,36047117602,0,3,40.686,-73.874,2,138
633,5452,36047117800,0,3,40.682,-73.874,2,138
634,5453,36047118000,0,3,40.689,-73.878,3,138
635,5454,36047118201,0,3,40.688,-73.872,2,138
636,5455,36047118202,0,3,40.689,-73.869,2,138
637,5461,36047119400,0,3,40.673,-73.877,2,138
638,5462,36047119600,0,3,40.676,-73.873,3,138
639,5470,36047123700,0,3,40.697,-73.957,2,138
640,5475,36049950300,0,9,43.854,-75.626,3,138
641,5480,36051030100,0,5,42.953,-77.829,2,138
642,5482,36051030202,0,5,42.847,-77.727,1,138
643,5495,36053030501,0,9,42.928,-75.85,2,138
644,5497,36053030700,0,9,42.88,-75.691,2,138
645,5499,36053030900,0,9,42.815,-75.542,2,138
646,5516,36055001800,0,2,43.196,-77.653,1,138
647,5517,36055001900,0,2,43.199,-77.631,1,138
648,5518,36055002000,0,2,43.19,-77.634,2,138
649,5520,36055002200,0,2,43.181,-77.64,2,138
650,5521,Rochester 5,0,2,43.175,-77.633,2,138
651,5534,36055003805,0,2,43.12,-77.628,1,138
652,5547,36055005400,0,2,43.174,-77.568,2,138
653,5549,36055005600,0,2,43.168,-77.581,2,138
654,5550,36055005700,0,2,43.165,-77.576,2,138
655,5552,36055005900,0,2,43.16,-77.574,2,138
656,5574,36055008301,0,2,43.182,-77.567,2,138
657,5576,36055008500,0,2,43.251,-77.616,1,138
658,5579,36055008702,0,2,43.151,-77.662,4,138
659,5590,36055010100,0,2,43.247,-77.596,2,138
660,5594,36055010500,0,2,43.22,-77.578,2,138
661,5597,36055010700,0,2,43.226,-77.549,2,138
662,5601,36055011000,0,2,43.185,-77.544,2,138
663,5603,36055011201,0,2,43.22,-77.521,2,138
664,5605,36055011205,0,2,43.222,-77.482,2,138
665,5606,36055011207,0,2,43.206,-77.494,4,138
666,5607,36055011208,0,2,43.205,-77.459,3,138
667,5608,36055011301,0,2,43.25,-77.408,2,138
668,5609,36055011302,0,2,43.239,-77.46,2,138
669,5610,36055011400,0,2,43.213,-77.409,2,138
670,5611,36055011501,0,2,43.189,-77.45,1,138
671,5619,36055011703,0,2,43.104,-77.4,2,138
672,5624,36055011800,0,2,43.099,-77.444,2,138
673,5625,36055011901,0,2,43.114,-77.458,2,138
674,5628,36055012100,0,2,43.111,-77.491,1,138
675,5645,36055013103,0,2,43.081,-77.677,2,138
676,5646,36055013104,0,2,43.081,-77.633,4,345
677,5648,36055013204,0,2,43.039,-77.628,1,138
678,5673,36055014202,0,2,43.148,-77.737,3,138
679,5677,36055014302,0,2,43.157,-77.693,2,138
680,5683,36055014601,0,2,43.075,-77.798,4,138
681,5684,36055014602,0,2,43.075,-77.736,3,138
682,5693,36055015000,0,2,43.08,-77.875,5,138
683,5702,36055980100,0,2,43.233,-77.567,2,138
684,5706,36057070500,0,6,42.956,-74.199,2,138
685,5715,36057072500,0,6,42.927,-74.697,2,138
686,5716,36057072600,0,6,42.866,-74.605,2,138
687,5719,36059300100,0,7,40.816,-73.738,4,138
688,5720,36059300300,0,7,40.804,-73.742,2,138
689,5721,36059300400,0,7,40.802,-73.726,2,138
690,5722,36059300500,0,3,40.788,-73.742,2,138
691,5724,36059300700,0,7,40.787,-73.726,5,138
692,5725,36059300800,0,7,40.775,-73.728,2,138
693,5730,36059301200,0,7,40.827,-73.695,3,138
694,5736,36059301800,0,7,40.787,-73.699,2,138
695,5738,36059302000,0,7,40.805,-73.647,2,138
696,5741,36059302200,0,7,40.786,-73.648,2,138
697,5743,36059302400,0,7,40.772,-73.648,1,138
698,5744,36059302501,0,7,40.773,-73.633,3,138
699,5746,36059302600,0,7,40.732,-73.702,1,138
700,5749,36059302900,0,7,40.746,-73.678,3,138
701,5750,36059303000,0,7,40.735,-73.685,2,138
702,5759,36059303600,0,7,40.745,-73.641,2,138
703,5760,36059303700,0,7,40.749,-73.628,2,138
704,5761,36059303800,0,7,40.75,-73.612,2,138
705,5771,36059404500,0,7,40.725,-73.697,2,138
706,5773,36059404700,0,7,40.726,-73.686,2,138
707,5775,36059404901,0,3,40.702,-73.722,2,138
708,5776,36059404902,0,3,40.704,-73.715,2,138
709,5777,36059405000,0,3,40.701,-73.703,2,138
710,5779,36059405200,0,7,40.701,-73.693,2,138
711,5782,36059405400,0,7,40.699,-73.685,2,138
712,5783,36059405500,0,7,40.703,-73.672,2,138
713,5784,36059405600,0,7,40.696,-73.673,2,138
714,5785,36059405700,0,7,40.687,-73.678,1,138
715,5788,36059406001,0,7,40.701,-73.654,2,138
716,5790,36059406100,0,7,40.708,-73.647,2,138
717,5798,36059406702,0,7,40.711,-73.635,2,138
718,5799,36059406801,0,7,40.711,-73.627,3,138
719,5800,36059406802,0,7,40.713,-73.622,2,138
720,5801,36059406900,0,7,40.716,-73.614,2,138
721,5808,36059407301,0,7,40.732,-73.598,4,230
722,5809,36059407302,0,7,40.715,-73.589,1,138
723,5811,36059407402,0,7,40.703,-73.583,2,138
724,5813,36059407502,0,7,40.694,-73.588,1,138
725,5815,36059407700,0,7,40.736,-73.568,3,138
726,5816,36059407801,0,7,40.737,-73.548,2,138
727,5817,36059407802,0,7,40.732,-73.553,2,138
728,5818,36059407900,0,7,40.707,-73.575,2,138
729,5819,36059408000,0,7,40.715,-73.568,2,138
730,5821,36059408200,0,7,40.719,-73.554,2,138
731,5836,36059409700,0,7,40.697,-73.506,1,138
732,5846,36059410700,0,3,40.653,-73.696,2,138
733,5847,36059410800,0,3,40.653,-73.707,2,138
734,5848,36059410900,0,3,40.656,-73.719,4,138
735,5849,36059411000,0,3,40.623,-73.749,4,138
736,5851,36059411200,0,3,40.625,-73.728,1,138
737,5857,36059411700,0,3,40.642,-73.694,2,138
738,5860,36059411902,0,3,40.651,-73.683,2,138
739,5862,36059412100,0,3,40.646,-73.666,3,138
740,5866,36059412400,0,7,40.661,-73.642,1,138
741,5873,36059413002,0,7,40.636,-73.653,2,138
742,5875,36059413200,0,7,40.631,-73.643,2,138
743,5877,36059413400,0,7,40.627,-73.628,2,230
744,5901,36059415102,0,7,40.647,-73.558,1,138
745,5915,36059416300,0,3,40.589,-73.724,2,138
746,5916,36059416401,0,3,40.587,-73.696,2,138
747,5918,36059416500,0,3,40.591,-73.669,2,138
748,5928,36059517200,0,7,40.856,-73.63,2,138
749,5932,36059517500,0,7,40.828,-73.635,2,138
750,5934,36059517701,0,7,40.834,-73.563,2,138
751,5935,36059517705,0,7,40.808,-73.577,4,138
752,5940,36059518000,0,7,40.865,-73.533,5,138
753,5942,36059518201,0,7,40.859,-73.492,2,138
754,5943,36059518203,0,7,40.827,-73.47,2,138
755,5944,36059518204,0,7,40.807,-73.471,2,138
756,5953,36059519000,0,7,40.752,-73.54,2,138
757,5955,36059519200,0,7,40.753,-73.514,2,138
758,5956,36059519300,0,7,40.766,-73.514,1,138
759,5959,36059519601,0,7,40.78,-73.498,2,138
760,5960,36059519602,0,7,40.777,-73.488,2,138
761,5961,36059519702,0,7,40.791,-73.46,3,138
762,5963,36059519704,0,7,40.782,-73.476,2,138
763,5967,36059520001,0,7,40.748,-73.492,2,138
764,5968,36059520002,0,7,40.742,-73.475,5,138
765,5969,36059520100,0,7,40.756,-73.454,2,138
766,5971,36059520300,0,7,40.721,-73.476,1,138
767,5993,36059522000,0,7,40.68,-73.429,1,138
768,5997,36059982100,0,7,40.793,-73.57,1,138
769,6000,36061000202,0,3,40.707,-73.978,3,138
770,6001,36061000600,0,3,40.713,-73.99,2,138
771,6003,36061000800,0,3,40.712,-73.995,3,138
772,6007,36061001200,0,3,40.716,-73.983,4,138
773,6011,36061001501,0,3,40.709,-74.003,1,138
774,6016,36061002100,0,3,40.714,-74.01,1,138
775,6017,36061002201,0,3,40.719,-73.982,2,138
776,6018,36061002202,0,3,40.721,-73.981,2,138
777,6021,36061002601,0,3,40.723,-73.98,2,138
778,6022,36061002602,0,3,40.724,-73.979,2,138
779,6024,36061002800,0,3,40.727,-73.977,2,138
780,6034,36061003700,0,3,40.726,-74.009,2,138
781,6036,36061003900,0,3,40.721,-74.012,2,138
782,6037,36061004000,0,3,40.731,-73.986,1,138
783,6041,36061004400,0,3,40.731,-73.976,2,138
784,6044,36061004800,0,3,40.734,-73.984,2,138
785,6046,36061005000,0,3,40.736,-73.987,2,138
786,6047,36061005200,0,3,40.737,-73.99,2,138
787,6049,36061005501,0,3,40.728,-73.997,1,138
788,6054,36061005900,0,3,40.731,-73.995,3,138
789,6055,36061006000,0,3,40.734,-73.974,2,138
790,6056,36061006100,0,3,40.734,-73.992,2,138
791,6057,36061006200,0,3,40.738,-73.972,2,138
792,6059,36061006400,0,3,40.737,-73.981,2,138
793,6060,36061006500,0,3,40.73,-74,2,138
794,6061,36061006600,0,3,40.74,-73.979,2,138
795,6063,36061006800,0,3,40.74,-73.984,3,230
796,6064,36061006900,0,3,40.731,-74.011,2,138
797,6065,36061007000,0,3,40.743,-73.977,2,138
798,6067,36061007200,0,3,40.745,-73.981,4,345
799,6068,36061007300,0,3,40.734,-74.004,2,138
800,6076,36061008100,0,3,40.74,-73.999,2,138
801,6077,36061008200,0,3,40.751,-73.981,3,345
802,6081,36061008603,0,3,40.754,-73.964,2,138
803,6082,36061008700,0,3,40.742,-73.997,3,138
804,6086,36061009100,0,3,40.745,-73.995,3,138
805,6090,36061009500,0,3,40.747,-73.993,4,138
806,6091,36061009600,0,3,40.756,-73.981,6,345
807,6093,36061009800,0,3,40.756,-73.968,2,138
808,6096,36061010100,0,3,40.75,-73.992,2,138
809,6100,36061010601,0,3,40.757,-73.962,3,138
810,6101,36061010602,0,3,40.76,-73.959,2,138
811,6102,36061010800,0,3,40.759,-73.965,2,138
812,6103,36061010900,0,3,40.752,-73.99,2,138
813,6109,36061011300,0,3,40.755,-73.988,2,138
814,6115,36061011800,0,3,40.765,-73.961,1,138
815,6120,36061012400,0,3,40.767,-73.954,3,138
816,6121,36061012500,0,3,40.76,-73.984,2,138
817,6122,36061012600,0,3,40.768,-73.959,3,138
818,6128,36061013200,0,3,40.77,-73.952,2,138
819,6130,36061013400,0,3,40.772,-73.956,2,138
820,6132,36061013600,0,3,40.773,-73.949,3,345
821,6134,36061013800,0,3,40.775,-73.954,3,230
822,6136,36061014000,0,3,40.776,-73.958,2,138
823,6137,36061014200,0,3,40.777,-73.961,1,138
824,6138,36061014300,0,3,40.782,-73.966,2,138
825,6140,36061014402,0,3,40.776,-73.945,3,138
826,6145,36061014801,0,3,40.779,-73.956,2,138
827,6146,36061014802,0,3,40.781,-73.954,2,138
828,6147,36061014900,0,3,40.772,-73.982,1,138
829,6148,36061015001,0,3,40.78,-73.959,2,138
830,6149,36061015002,0,3,40.782,-73.958,2,138
831,6152,36061015300,0,3,40.775,-73.981,2,138
832,6157,36061015700,0,3,40.777,-73.979,2,138
833,6158,36061015801,0,3,40.784,-73.952,2,138
834,6159,36061015802,0,3,40.787,-73.95,2,138
835,6160,36061015900,0,3,40.78,-73.986,1,138
836,6163,36061016100,0,3,40.78,-73.977,3,138
837,6165,36061016300,0,3,40.783,-73.985,4,138
838,6167,36061016500,0,3,40.782,-73.975,2,138
839,6168,36061016600,0,3,40.789,-73.948,2,138
840,6169,36061016700,0,3,40.786,-73.982,2,138
841,6171,36061016900,0,3,40.785,-73.973,2,138
842,6172,36061017000,0,3,40.791,-73.942,2,138
843,6174,36061017200,0,3,40.794,-73.945,2,138
844,6175,36061017300,0,3,40.788,-73.971,2,138
845,6178,36061017500,0,3,40.791,-73.979,2,138
846,6179,36061017700,0,3,40.79,-73.969,2,138
847,6180,36061017800,0,3,40.794,-73.933,3,138
848,6182,36061018000,0,3,40.794,-73.94,2,138
849,6183,36061018100,0,3,40.793,-73.968,2,138
850,6184,36061018200,0,3,40.798,-73.942,2,138
851,6186,36061018400,0,3,40.8,-73.945,4,138
852,6188,36061018600,0,3,40.799,-73.95,2,138
853,6189,36061018700,0,3,40.799,-73.973,2,138
854,6190,36061018800,0,3,40.798,-73.937,5,138
855,6191,36061018900,0,3,40.797,-73.964,3,138
856,6192,36061019000,0,3,40.802,-73.948,2,138
857,6193,36061019100,0,3,40.801,-73.971,2,138
858,6194,36061019200,0,3,40.8,-73.929,2,138
859,6195,36061019300,0,3,40.801,-73.962,2,138
860,6196,36061019400,0,3,40.8,-73.935,2,138
861,6198,36061019600,0,3,40.803,-73.939,2,138
862,6200,36061019702,0,3,40.802,-73.958,2,138
863,6201,36061019800,0,3,40.804,-73.942,2,138
864,6202,36061019900,0,3,40.806,-73.968,1,138
865,6206,36061020300,0,3,40.809,-73.962,3,138
866,6207,36061020500,0,3,40.811,-73.966,2,138
867,6209,36061020701,0,3,40.809,-73.958,2,138
868,6211,36061020901,0,3,40.812,-73.955,2,138
869,6213,36061021100,0,3,40.815,-73.962,3,138
870,6214,36061021200,0,3,40.814,-73.939,3,138
871,6215,36061021303,0,3,40.815,-73.953,2,138
872,6217,36061021500,0,3,40.814,-73.949,2,138
873,6218,36061021600,0,3,40.801,-73.954,4,138
874,6220,36061021800,0,3,40.803,-73.953,2,138
875,6221,36061021900,0,3,40.818,-73.959,2,138
876,6222,36061022000,0,3,40.806,-73.951,2,138
877,6225,36061022301,0,3,40.822,-73.956,2,138
878,6226,36061022302,0,3,40.821,-73.959,2,138
879,6228,36061022500,0,3,40.824,-73.955,3,138
880,6229,36061022600,0,3,40.813,-73.945,2,138
881,6232,36061022900,0,3,40.827,-73.953,2,138
882,6233,36061023000,0,3,40.818,-73.941,2,138
883,6234,36061023100,0,3,40.826,-73.944,2,138
884,6235,36061023200,0,3,40.821,-73.94,2,138
885,6236,36061023300,0,3,40.829,-73.952,2,138
886,6238,36061023501,0,3,40.829,-73.942,2,138
887,6241,36061023700,0,3,40.832,-73.95,2,138
888,6242,36061023900,0,3,40.832,-73.941,2,138
889,6243,36061024000,0,3,40.786,-73.92,2,138
890,6244,36061024100,0,3,40.835,-73.948,3,138
891,6245,36061024200,0,3,40.806,-73.933,3,138
892,6248,36061024500,0,3,40.837,-73.942,3,138
893,6249,36061024700,0,3,40.839,-73.948,2,138
894,6251,36061025100,0,3,40.84,-73.94,3,345
895,6252,36061025300,0,3,40.843,-73.938,2,138
896,6254,36061025700,0,3,40.808,-73.954,2,138
897,6257,36061026300,0,3,40.847,-73.937,1,138
898,6264,36061027700,0,3,40.855,-73.927,3,230
899,6270,36061029100,0,3,40.864,-73.924,2,138
900,6271,36061029300,0,3,40.866,-73.92,2,138
901,6275,36061030300,0,3,40.869,-73.919,3,138
902,6276,36061030700,0,3,40.871,-73.917,2,138
903,6277,36061030900,0,3,40.876,-73.91,3,138
904,6283,36063020200,0,0,43.118,-79.043,1,138
905,6284,36063020300,0,5,43.106,-79.013,2,138
906,6296,36063022000,0,5,43.083,-78.994,1,138
907,6304,36063022702,0,5,43.101,-78.766,2,138
908,6305,36063022711,0,5,43.105,-78.873,1,138
909,6309,36063022901,0,5,43.048,-78.885,2,138
910,6314,36063023300,0,5,43.034,-78.846,2,138
911,6319,36063023500,0,5,43.184,-78.69,2,138
912,6320,36063023600,0,5,43.168,-78.715,1,138
913,6329,36063024201,0,5,43.259,-78.686,2,138
914,6339,36063024502,0,5,43.253,-78.963,2,138
915,6343,36065020300,0,9,43.1,-75.234,2,138
916,6345,36065020802,0,9,43.094,-75.198,2,138
917,6346,36065020803,0,9,43.098,-75.216,2,138
918,6347,36065020900,0,9,43.102,-75.247,2,138
919,6348,36065021000,0,9,43.098,-75.224,2,138
920,6350,36065021102,0,9,43.094,-75.254,3,138
921,6352,36065021201,0,9,43.09,-75.229,2,138
922,6355,36065021302,0,9,43.089,-75.215,2,138
923,6359,36065021500,0,9,43.09,-75.237,2,138
924,6360,36065021601,0,9,43.115,-75.187,2,138
925,6363,36065021702,0,9,43.084,-75.282,1,138
926,6365,36065022000,0,9,43.225,-75.477,2,138
927,6369,36065022500,0,9,43.21,-75.431,2,138
928,6371,36065022702,0,9,43.255,-75.494,2,138
929,6376,36065023400,0,9,43.1,-75.289,3,345
930,6377,36065023501,0,9,43.109,-75.307,2,138
931,6378,36065023502,0,9,43.121,-75.336,2,138
932,6386,36065024301,0,9,43.288,-75.476,2,138
933,6387,36065024302,0,9,43.329,-75.522,2,138
934,6389,36065024400,0,9,43.384,-75.68,2,138
935,6399,36065025600,0,9,42.972,-75.439,2,138
936,6400,36065025700,0,9,42.9,-75.376,2,138
937,6401,36065025800,0,9,42.906,-75.259,2,138
938,6403,36065026100,0,9,43.154,-75.368,2,138
939,6405,36065026300,0,9,43.216,-75.458,2,138
940,6406,36065026400,0,9,43.091,-75.244,2,138
941,6409,36065026700,0,9,43.256,-75.761,2,138
942,6410,36065940000,0,9,43.07,-75.599,4,138
943,6411,36065940100,0,9,43.159,-75.619,2,138
944,6412,36065940200,0,9,43.066,-75.533,2,138
945,6413,36065980002,0,9,43.108,-75.209,6,138
946,6415,36065980100,0,9,43.228,-75.407,3,138
947,6419,36067000400,0,4,43.076,-76.138,3,138
948,6423,36067000800,0,4,43.068,-76.139,2,138
949,6425,36067001000,0,4,43.072,-76.11,3,138
950,6427,36067001500,0,4,43.061,-76.14,2,138
951,6428,36067001600,0,4,43.057,-76.138,2,138
952,6430,36067001702,0,4,43.061,-76.118,2,138
953,6432,36067001900,0,4,43.064,-76.097,2,138
954,6436,36067002400,0,4,43.054,-76.135,2,138
955,6438,36067002901,0,4,43.044,-76.182,2,138
956,6441,36067003400,0,4,43.049,-76.134,2,138
957,6442,36067003500,0,4,43.048,-76.12,2,138
958,6448,36067004200,0,4,43.039,-76.149,4,138
959,6450,36067004302,0,4,43.04,-76.135,2,138
960,6452,36067004500,0,4,43.036,-76.118,2,138
961,6457,36067005100,0,4,43.024,-76.16,2,138
962,6461,36067005500,0,4,43.021,-76.134,2,138
963,6462,36067005601,0,4,43.024,-76.121,2,138
964,6463,36067005602,0,4,43.018,-76.117,2,138
965,6465,36067005800,0,4,43.02,-76.153,2,138
966,6466,36067005900,0,4,43.017,-76.145,2,138
967,6467,36067006000,0,4,42.998,-76.156,2,138
968,6468,36067006101,0,4,43.007,-76.141,3,138
969,6486,36067011101,0,4,43.141,-76.222,2,138
970,6487,36067011102,0,4,43.132,-76.2,2,138
971,6489,36067011202,0,4,43.177,-76.24,2,138
972,6490,36067011231,0,4,43.158,-76.221,2,138
973,6491,36067011232,0,4,43.169,-76.206,2,138
974,6494,36067011300,0,4,43.213,-76.203,2,138
975,6495,36067011401,0,4,43.194,-76.303,2,138
976,6496,36067011402,0,4,43.187,-76.411,2,138
977,6498,36067011600,0,4,43.169,-76.34,4,138
978,6499,36067011700,0,4,43.149,-76.34,2,138
979,6500,36067011800,0,4,43.123,-76.296,2,138
980,6501,36067011900,0,4,43.119,-76.371,2,138
981,6502,36067012000,0,4,43.053,-76.438,2,138
982,6510,36067012800,0,4,43.092,-76.237,2,138
983,6511,36067012900,0,4,43.062,-76.215,2,138
984,6512,36067013000,0,4,43.053,-76.21,2,138
985,6514,36067013200,0,4,43.04,-76.202,2,138
986,6519,36067013701,0,4,43.089,-76.166,2,138
987,6523,36067014200,0,4,43.083,-76.129,2,138
988,6525,36067014400,0,4,43.096,-76.097,3,345
989,6526,36067014500,0,4,43.096,-76.059,2,138
990,6527,36067014600,0,4,43.05,-76.06,2,138
991,6531,36067015000,0,4,43.043,-75.992,4,138
992,6532,36067015100,0,4,43.019,-76,2,138
993,6533,36067015201,0,4,43.003,-76.007,4,138
994,6536,36067015400,0,4,43.078,-76.017,3,345
995,6537,36067015500,0,4,43.052,-76.022,2,138
996,6539,36067015700,0,4,42.923,-75.98,2,138
997,6540,36067015800,0,4,42.906,-76.103,2,138
998,6543,36067016100,0,4,42.973,-76.12,4,138
999,6544,36067016200,0,4,42.976,-76.147,2,138
1000,6549,36067016600,0,4,42.977,-76.414,2,138
1001,6550,36067016700,0,4,42.899,-76.435,2,138
1002,6554,36067016902,0,4,42.822,-75.991,2,138
1003,6558,36069050201,0,2,42.994,-77.303,3,138
1004,6559,36069050202,0,2,42.959,-77.345,1,138
1005,6560,36069050301,0,2,43.003,-77.185,2,138
1006,6575,36069051700,0,4,42.881,-76.979,1,138
1007,6583,36071000300,0,1,41.506,-74.023,3,138
1008,6584,36071000400,0,1,41.505,-74.01,2,138
1009,6585,36071000501,0,1,41.498,-74.014,2,138
1010,6586,36071000502,0,1,41.493,-74.014,2,138
1011,6587,36071000600,0,1,41.498,-74.037,2,138
1012,6591,36071001500,0,1,41.436,-74.416,2,138
1013,6595,36071002300,0,0,41.374,-74.698,1,138
1014,6598,36071010200,0,1,41.543,-74.011,3,138
1015,6604,36071010801,0,1,41.504,-74.226,2,138
1016,6608,36071011000,0,1,41.498,-74.358,2,138
1017,6613,36071011400,0,1,41.48,-74.453,2,138
1018,6615,36071011601,0,1,41.421,-74.642,2,138
1019,6616,36071011602,0,1,41.462,-74.675,2,138
1020,6621,36071011900,0,1,41.38,-74.361,3,345
1021,6625,36071012601,0,1,41.481,-74.06,2,138
1022,6627,36071012700,0,1,41.482,-74.026,2,138
1023,6628,36071012800,0,1,41.465,-74.03,3,138
1024,6630,36071013000,0,1,41.442,-74.047,2,138
1025,6631,36071013100,0,1,41.413,-74.053,2,138
1026,6637,36071013600,0,1,41.362,-74.026,2,138
1027,6638,36071013700,0,1,41.372,-73.969,2,138
1028,6642,36071014102,0,1,41.313,-74.155,2,345
1029,6645,36071014301,0,1,41.362,-74.27,1,138
1030,6650,36071014600,0,1,41.258,-74.347,2,138
1031,6652,36071014800,0,1,41.207,-74.274,2,138
1032,6658,36071015100,0,1,41.45,-74.433,2,138
1033,6665,36073040700,0,5,43.244,-78.192,2,138
1034,6666,36073040801,0,5,43.178,-78.057,3,138
1035,6673,36075020302,0,4,43.545,-76.138,1,138
1036,6674,36075020400,0,4,43.455,-76.205,4,138
1037,6675,36075020500,0,4,43.433,-76.013,2,138
1038,6676,36075020600,0,4,43.287,-75.956,2,138
1039,6679,36075020703,0,4,43.34,-76.156,2,138
1040,6682,36075020902,0,4,43.266,-76.274,2,138
1041,6683,36075021000,0,4,43.359,-76.373,3,138
1042,6687,36075021104,0,4,43.322,-76.428,2,138
1043,6688,36075021200,0,4,43.292,-76.441,2,138
1044,6689,36075021300,0,2,43.31,-76.552,3,138
1045,6690,36075021401,0,2,43.404,-76.555,3,230
1046,6691,36075021402,0,4,43.399,-76.482,3,138
1047,6694,36075021601,0,2,43.458,-76.516,5,345
1048,6695,36075021602,0,2,43.448,-76.527,3,230
1049,6696,36075021603,0,4,43.44,-76.504,3,138
1050,6697,36075021604,0,4,43.446,-76.487,2,138
1051,6698,36075021605,0,4,43.466,-76.489,4,345
1052,6699,36077590100,0,9,42.769,-74.828,2,138
1053,6701,36077590202,0,9,42.742,-74.982,2,138
1054,6705,36077590600,0,6,42.677,-74.756,2,138
1055,6717,36079010200,0,1,41.486,-73.599,2,138
1056,6720,36079010500,0,1,41.476,-73.741,2,138
1057,6721,36079010600,0,1,41.447,-73.905,3,138
1058,6722,36079010700,0,1,41.426,-73.948,2,138
1059,6723,36079010800,0,1,41.354,-73.926,2,138
1060,6724,36079010900,0,1,41.369,-73.86,2,138
1061,6725,36079011000,0,1,41.411,-73.825,2,138
1062,6726,36079011100,0,1,41.396,-73.774,2,138
1063,6727,36079011200,0,1,41.358,-73.77,1,138
1064,6729,36079011400,0,1,41.401,-73.739,2,138
1065,6732,36079011700,0,1,41.379,-73.609,2,138
1066,6733,36079011800,0,1,41.426,-73.618,2,138
1067,6734,36079011900,0,1,41.417,-73.569,2,138
1068,6735,36081000100,0,3,40.741,-73.944,3,138
1069,6737,36081000400,0,3,40.69,-73.865,2,138
1070,6739,36081000700,0,3,40.745,-73.95,2,138
1071,6741,36081001000,0,3,40.691,-73.859,1,138
1072,6742,36081001200,0,3,40.694,-73.861,3,138
1073,6746,36081001900,0,3,40.748,-73.944,2,138
1074,6750,36081002500,0,3,40.755,-73.945,2,138
1075,6770,36081005100,0,3,40.756,-73.932,4,138
1076,6772,36081005300,0,3,40.76,-73.929,2,138
1077,6774,36081005500,0,3,40.754,-73.928,3,138
1078,6775,36081005700,0,3,40.757,-73.926,4,138
1079,6777,36081005900,0,3,40.76,-73.924,2,138
1080,6778,36081006100,0,3,40.762,-73.922,2,138
1081,6779,36081006201,0,3,40.667,-73.847,2,138
1082,6781,36081006300,0,3,40.764,-73.92,2,138
1083,6782,36081006501,0,3,40.768,-73.918,2,138
1084,6784,36081006900,0,3,40.772,-73.922,2,138
1085,6785,36081007100,0,3,40.769,-73.923,2,138
1086,6786,36081007300,0,3,40.767,-73.925,2,138
1087,6787,36081007500,0,3,40.765,-73.927,2,138
1088,6794,36081008700,0,3,40.775,-73.931,2,138
1089,6795,36081008800,0,3,40.671,-73.839,2,138
1090,6796,36081009100,0,3,40.775,-73.928,2,138
1091,6800,36081009700,0,3,40.776,-73.919,5,138
1092,6802,36081009900,0,3,40.779,-73.923,2,138
1093,6804,36081010100,0,3,40.778,-73.916,2,138
1094,6805,36081010200,0,3,40.679,-73.823,2,138
1095,6806,36081010300,0,3,40.781,-73.915,6,230
1096,6810,36081010701,0,3,40.786,-73.901,3,138
1097,6815,36081011300,0,3,40.776,-73.908,3,138
1098,6817,36081011500,0,3,40.774,-73.913,2,138
1099,6819,36081011700,0,3,40.772,-73.91,4,230
1100,6821,36081011900,0,3,40.771,-73.906,2,138
1101,6823,36081012100,0,3,40.773,-73.904,3,138
1102,6824,36081012200,0,3,40.697,-73.831,1,138
1103,6825,36081012301,0,3,40.776,-73.899,4,138
1104,6827,36081012500,0,3,40.771,-73.916,2,138
1105,6834,36081013500,0,3,40.771,-73.899,3,138
1106,6836,36081013700,0,3,40.769,-73.905,2,138
1107,6839,36081014100,0,3,40.767,-73.907,2,138
1108,6841,36081014202,0,3,40.699,-73.82,2,138
1109,6842,36081014300,0,3,40.766,-73.912,3,230
1110,6844,36081014500,0,3,40.764,-73.908,2,138
1111,6845,36081014700,0,3,40.763,-73.911,5,230
1112,6847,36081014900,0,3,40.762,-73.914,2,138
1113,6849,36081015100,0,3,40.76,-73.911,3,138
1114,6860,36081016300,0,3,40.756,-73.91,3,230
1115,6864,36081016900,0,3,40.748,-73.914,3,138
1116,6866,36081017100,0,3,40.75,-73.926,5,138
1117,6871,36081017900,0,3,40.745,-73.93,3,138
1118,6879,36081018501,0,3,40.739,-73.922,2,138
1119,6880,36081018502,0,3,40.741,-73.922,2,138
1120,6884,36081018900,0,3,40.74,-73.928,2,138
1121,6890,36081019900,0,3,40.735,-73.934,1,138
1122,6897,36081021400,0,3,40.706,-73.815,2,138
1123,6898,36081021600,0,3,40.709,-73.823,2,138
1124,6899,36081021900,0,3,40.724,-73.918,4,138
1125,6900,36081022001,0,3,40.714,-73.821,2,138
1126,6901,36081022002,0,3,40.713,-73.814,2,138
1127,6904,36081023200,0,3,40.71,-73.811,2,138
1128,6905,36081023500,0,3,40.739,-73.918,4,138
1129,6907,36081023800,0,3,40.705,-73.809,2,138
1130,6909,36081024300,0,3,40.737,-73.902,2,138
1131,6910,36081024500,0,3,40.739,-73.905,2,138
1132,6913,36081024900,0,3,40.743,-73.904,2,138
1133,6914,36081025100,0,3,40.745,-73.91,3,138
1134,6915,36081025301,0,3,40.745,-73.917,2,138
1135,6918,36081025500,0,3,40.75,-73.908,2,230
1136,6919,36081025700,0,3,40.75,-73.905,2,138
1137,6921,36081025900,0,3,40.749,-73.904,2,138
1138,6923,36081026100,0,3,40.747,-73.901,4,138
1139,6925,36081026300,0,3,40.746,-73.897,2,138
1140,6927,36081026500,0,3,40.745,-73.893,2,138
1141,6929,36081026700,0,3,40.745,-73.888,2,138
1142,6930,36081026901,0,3,40.747,-73.882,2,138
1143,6933,36081027100,0,3,40.745,-73.879,2,138
1144,6939,36081027700,0,3,40.753,-73.878,1,138
1145,6943,36081028100,0,3,40.752,-73.883,2,138
1146,6945,36081028300,0,3,40.751,-73.885,2,138
1147,6948,36081028700,0,3,40.751,-73.889,3,138
1148,6951,36081029100,0,3,40.751,-73.895,2,138
1149,6953,36081029400,0,3,40.671,-73.781,1,138
1150,6955,36081029700,0,3,40.759,-73.903,3,138
1151,6958,36081030903,0,3,40.758,-73.89,2,138
1152,6959,36081030904,0,3,40.764,-73.891,2,138
1153,6960,36081031700,0,3,40.77,-73.893,4,138
1154,6963,36081032800,0,3,40.672,-73.756,2,138
1155,6964,36081032900,0,3,40.764,-73.883,2,138
1156,6966,36081033100,0,3,40.776,-73.873,2,138
1157,6968,36081033402,0,3,40.675,-73.772,2,138
1158,6971,36081034700,0,3,40.767,-73.879,2,138
1159,6972,36081035100,0,3,40.759,-73.877,2,138
1160,6973,36081035200,0,3,40.679,-73.758,2,138
1161,6975,36081035700,0,3,40.768,-73.872,2,138
1162,6978,36081036300,0,3,40.76,-73.869,2,138
1163,6980,36081036600,0,3,40.686,-73.763,4,138
1164,6981,36081036700,0,3,40.763,-73.868,2,138
1165,6983,36081037100,0,3,40.764,-73.864,2,138
1166,6984,36081037300,0,3,40.76,-73.86,2,138
1167,6985,36081037500,0,3,40.751,-73.87,2,138
1168,6987,36081037700,0,3,40.756,-73.869,2,138
1169,6989,36081038100,0,3,40.756,-73.858,2,138
1170,6990,36081038301,0,3,40.761,-73.842,3,138
1171,6997,36081040100,0,3,40.751,-73.857,2,138
1172,7003,36081040900,0,3,40.75,-73.868,2,138
1173,7004,36081041100,0,3,40.744,-73.865,2,138
1174,7007,36081041500,0,3,40.747,-73.857,2,138
1175,7010,36081042700,0,3,40.744,-73.854,2,138
1176,7013,36081043701,0,3,40.739,-73.851,2,138
1177,7015,36081043900,0,3,40.742,-73.856,2,138
1178,7018,36081044302,0,3,40.74,-73.864,2,138
1179,7019,36081044400,0,3,40.706,-73.782,3,138
1180,7026,36081045500,0,3,40.736,-73.862,3,138
1181,7042,36081047100,0,3,40.741,-73.877,2,138
1182,7045,36081047500,0,3,40.734,-73.875,2,138
1183,7048,36081047900,0,3,40.735,-73.884,2,138
1184,7050,36081048100,0,3,40.742,-73.885,2,138
1185,7052,36081048300,0,3,40.742,-73.893,3,138
1186,7054,36081048500,0,3,40.74,-73.885,2,138
1187,7055,36081048900,0,3,40.737,-73.892,3,138
1188,7058,36081049302,0,3,40.728,-73.892,2,138
1189,7061,36081049700,0,3,40.732,-73.89,1,138
1190,7062,36081049900,0,3,40.731,-73.883,2,138
1191,7072,36081051100,0,3,40.727,-73.9,2,138
1192,7075,36081051500,0,3,40.731,-73.902,2,138
1193,7077,36081051700,0,3,40.725,-73.9,2,138
1194,7080,36081052100,0,3,40.721,-73.902,3,138
1195,7087,36081053100,0,3,40.723,-73.908,2,138
1196,7090,36081053500,0,3,40.716,-73.916,4,138
1197,7096,36081054500,0,3,40.706,-73.913,3,138
1198,7097,36081054700,0,3,40.704,-73.91,2,138
1199,7099,36081054900,0,3,40.702,-73.908,2,138
1200,7100,36081055100,0,3,40.702,-73.904,3,138
1201,7102,36081055300,0,3,40.699,-73.907,3,138
1202,7106,36081055700,0,3,40.699,-73.898,2,138
1203,7108,36081055900,0,3,40.694,-73.902,2,138
1204,7119,36081058000,0,3,40.707,-73.73,2,138
1205,7121,36081058200,0,3,40.707,-73.738,1,138
1206,7127,36081059100,0,3,40.708,-73.91,2,138
1207,7128,36081059200,0,3,40.701,-73.729,2,138
1208,7131,36081059500,0,3,40.714,-73.908,3,138
1209,7134,36081059900,0,3,40.717,-73.902,2,138
1210,7136,36081060100,0,3,40.715,-73.902,3,138
1211,7137,36081060300,0,3,40.714,-73.899,2,138
1212,7139,36081060701,0,3,40.717,-73.894,2,138
1213,7143,36081061301,0,3,40.709,-73.893,4,138
1214,7144,36081061302,0,3,40.709,-73.884,2,138
1215,7149,36081061900,0,3,40.71,-73.877,2,138
1216,7157,36081062700,0,3,40.704,-73.886,2,138
1217,7158,36081062900,0,3,40.701,-73.883,2,138
1218,7164,36081063700,0,3,40.708,-73.862,2,138
1219,7169,36081064500,0,3,40.709,-73.852,2,138
1220,7172,36081065400,0,3,40.662,-73.74,2,138
1221,7175,36081065702,0,3,40.713,-73.883,2,138
1222,7176,36081065703,0,3,40.715,-73.875,2,138
1223,7177,36081065900,0,3,40.716,-73.882,2,138
1224,7179,36081066100,0,3,40.718,-73.882,2,138
1225,7180,36081066300,0,3,40.721,-73.877,3,138
1226,7183,36081066701,0,3,40.722,-73.891,2,138
1227,7185,36081067100,0,3,40.724,-73.878,2,138
1228,7186,36081067700,0,3,40.719,-73.872,2,138
1229,7189,36081068200,0,3,40.668,-73.75,2,138
1230,7191,36081068700,0,3,40.73,-73.869,2,138
1231,7193,36081069300,0,3,40.729,-73.863,2,138
1232,7196,36081069701,0,3,40.727,-73.86,2,138
1233,7200,36081070900,0,3,40.719,-73.855,2,138
1234,7201,36081071100,0,3,40.722,-73.852,2,138
1235,7202,36081071303,0,3,40.726,-73.85,3,138
1236,7203,36081071304,0,3,40.729,-73.854,3,138
1237,7204,36081071305,0,3,40.724,-73.851,2,138
1238,7205,36081071306,0,3,40.726,-73.856,2,138
1239,7206,36081071600,0,3,40.651,-73.785,2,138
1240,7207,36081071701,0,3,40.731,-73.86,2,138
1241,7212,36081072900,0,3,40.713,-73.852,2,138
1242,7214,36081073700,0,3,40.718,-73.843,2,138
1243,7216,36081074100,0,3,40.728,-73.847,2,138
1244,7217,36081074300,0,3,40.732,-73.849,2,138
1245,7218,36081074500,0,3,40.736,-73.851,2,138
1246,7221,36081075701,0,3,40.718,-73.835,2,138
1247,7225,36081077300,0,3,40.711,-73.835,1,138
1248,7226,36081077500,0,3,40.709,-73.832,2,138
1249,7227,36081077902,0,3,40.725,-73.825,3,138
1250,7228,36081077903,0,3,40.719,-73.822,2,138
1251,7229,36081077904,0,3,40.721,-73.814,2,138
1252,7238,36081079701,0,3,40.753,-73.825,2,138
1253,7239,36081079702,0,3,40.751,-73.829,3,138
1254,7240,36081079900,0,3,40.747,-73.827,3,230
1255,7243,36081080900,0,3,40.734,-73.822,2,138
1256,7244,36081081400,0,3,40.671,-73.804,2,138
1257,7248,36081084000,0,3,40.674,-73.818,2,138
1258,7252,36081084900,0,3,40.755,-73.833,3,138
1259,7259,36081086400,0,3,40.673,-73.832,2,138
1260,7261,36081086900,0,3,40.765,-73.834,4,138
1261,7265,36081089200,0,3,40.657,-73.848,2,138
1262,7266,36081090700,0,3,40.773,-73.839,2,138
1263,7269,36081091900,0,3,40.776,-73.847,2,138
1264,7270,36081092200,0,3,40.572,-73.861,2,138
1265,7271,36081092500,0,3,40.783,-73.844,2,138
1266,7272,36081092800,0,3,40.574,-73.853,2,138
1267,7274,36081093401,0,3,40.577,-73.846,2,138
1268,7275,36081093402,0,3,40.579,-73.84,2,138
1269,7276,36081093800,0,3,40.581,-73.83,2,138
1270,7279,36081094202,0,3,40.591,-73.809,2,138
1271,7280,36081094203,0,3,40.586,-73.81,2,138
1272,7281,36081094500,0,3,40.788,-73.831,2,138
1273,7282,36081094700,0,3,40.786,-73.841,3,138
1274,7283,36081095400,0,3,40.593,-73.799,2,138
1275,7284,36081096400,0,3,40.594,-73.793,2,138
1276,7286,36081097203,0,3,40.6,-73.78,2,138
1277,7287,36081097204,0,3,40.594,-73.781,3,138
1278,7290,36081098700,0,3,40.792,-73.809,2,138
1279,7293,36081099701,0,3,40.781,-73.79,2,138
1280,7297,36081099801,0,3,40.598,-73.758,2,138
1281,7301,36081100802,0,3,40.603,-73.764,2,138
1282,7302,36081101001,0,3,40.597,-73.749,2,138
1283,7303,36081101002,0,3,40.599,-73.741,2,138
1284,7304,36081101700,0,3,40.78,-73.798,2,138
1285,7313,36081108500,0,3,40.772,-73.789,2,138
1286,7317,36081111300,0,3,40.767,-73.762,2,138
1287,7329,36081116300,0,3,40.764,-73.819,1,138
1288,7332,36081117500,0,3,40.761,-73.796,1,138
1289,7348,36081122702,0,3,40.733,-73.813,2,138
1290,7359,36081130100,0,3,40.733,-73.74,2,138
1291,7375,36081144100,0,3,40.756,-73.764,2,138
1292,7382,36081147100,0,3,40.761,-73.763,2,138
1293,7384,36081148300,0,3,40.774,-73.749,2,138
1294,7413,36083051500,0,6,42.633,-73.745,2,230
1295,7416,36083051702,0,6,42.901,-73.35,2,138
1296,7433,36083052403,0,6,42.625,-73.715,1,138
1297,7434,36083052404,0,6,42.596,-73.729,2,138
1298,7435,36083052501,0,6,42.519,-73.724,2,138
1299,7442,36085000600,0,3,40.617,-74.066,2,138
1300,7444,36085000800,0,3,40.612,-74.068,2,138
1301,7451,36085002100,0,3,40.631,-74.077,2,138
1302,7452,36085002700,0,3,40.624,-74.076,2,138
1303,7453,36085002900,0,3,40.62,-74.083,3,138
1304,7457,36085004000,0,3,40.614,-74.081,2,138
1305,7458,36085004700,0,3,40.614,-74.095,2,138
1306,7460,36085005900,0,3,40.625,-74.099,2,138
1307,7465,36085007500,0,3,40.634,-74.091,1,138
1308,7468,36085009601,0,3,40.597,-74.089,1,138
1309,7469,36085009602,0,3,40.591,-74.095,2,138
1310,7470,36085009700,0,3,40.64,-74.109,4,138
1311,7471,36085010500,0,3,40.634,-74.112,2,138
1312,7474,36085011401,0,3,40.586,-74.099,2,138
1313,7475,36085011402,0,3,40.581,-74.105,2,138
1314,7477,36085012200,0,3,40.576,-74.111,3,138
1315,7486,36085013302,0,3,40.635,-74.124,3,138
1316,7487,36085013400,0,3,40.57,-74.117,2,138
1317,7488,36085013800,0,3,40.57,-74.132,1,138
1318,7492,36085014606,0,3,40.563,-74.143,6,138
1319,7495,36085014700,0,3,40.619,-74.116,3,138
1320,7496,36085015100,0,3,40.62,-74.128,2,138
1321,7505,36085017010,0,3,40.551,-74.196,1,138
1322,7508,36085017300,0,3,40.605,-74.118,2,138
1323,7510,36085017700,0,3,40.602,-74.104,2,138
1324,7513,36085018702,0,3,40.604,-74.126,4,138
1325,7514,36085018901,0,3,40.612,-74.14,4,138
1326,7515,36085018902,0,3,40.605,-74.138,2,138
1327,7519,36085020700,0,3,40.636,-74.135,3,138
1328,7523,36085021300,0,3,40.633,-74.139,2,138
1329,7525,36085022600,0,3,40.535,-74.228,1,138
1330,7526,36085022800,0,3,40.578,-74.184,2,138
1331,7527,36085023100,0,3,40.63,-74.156,2,138
1332,7528,36085023900,0,3,40.63,-74.149,2,138
1333,7531,36085024700,0,3,40.628,-74.142,2,138
1334,7534,36085027301,0,3,40.6,-74.152,4,138
1335,7536,36085027702,0,3,40.58,-74.164,3,138
1336,7541,36085029102,0,3,40.609,-74.187,3,345
1337,7542,36085029103,0,3,40.604,-74.17,2,138
1338,7543,36085029104,0,3,40.614,-74.163,3,138
1339,7545,36085030302,0,3,40.624,-74.159,2,138
1340,7548,36085032300,0,3,40.632,-74.176,1,138
1341,7549,36087010101,0,1,41.263,-74.021,6,345
1342,7550,36087010102,0,1,41.223,-73.996,2,345
1343,7553,36087010502,0,1,41.193,-74.03,2,138
1344,7557,36087010701,0,1,41.192,-73.972,3,138
1345,7561,36087010802,0,1,41.166,-73.971,2,138
1346,7563,36087010804,0,1,41.144,-73.985,2,138
1347,7564,36087010901,0,1,41.15,-73.948,2,138
1348,7565,36087010902,0,1,41.15,-73.926,3,138
1349,7566,36087011000,0,1,41.112,-73.918,2,138
1350,7567,36087011101,0,1,41.124,-73.937,3,138
1351,7568,36087011102,0,1,41.1,-73.948,3,345
1352,7569,36087011200,0,1,41.101,-73.978,2,138
1353,7570,36087011301,0,1,41.107,-74.026,3,138
1354,7571,36087011302,0,1,41.089,-74.023,2,138
1355,7574,36087011403,0,1,41.126,-73.992,2,138
1356,7577,36087011501,0,1,41.163,-74.07,3,138
1357,7578,36087011502,0,1,41.161,-74.041,2,138
1358,7579,36087011504,0,1,41.13,-74.035,2,138
1359,7581,36087011506,0,1,41.144,-74.028,2,138
1360,7582,36087011601,0,1,41.16,-74.144,3,138
1361,7583,36087011602,0,1,41.127,-74.102,2,138
1362,7584,36087011603,0,1,41.101,-74.111,2,138
1363,7585,36087011700,0,1,41.162,-74.19,2,138
1364,7588,36087011902,0,1,41.119,-74.145,2,138
1365,7603,36087012600,0,1,41.069,-74.023,2,138
1366,7604,36087012700,0,1,41.057,-74.018,3,138
1367,7605,36087012800,0,1,41.057,-73.99,2,138
1368,7606,36087013001,0,1,41.05,-73.972,5,138
1369,7607,36087013002,0,1,41.063,-73.959,3,138
1370,7608,36087013003,0,1,41.062,-73.934,3,345
1371,7609,36087013100,0,1,41.094,-73.923,3,345
1372,7610,36087013200,0,1,41.083,-73.924,2,345
1373,7611,36087013300,0,1,41.041,-73.919,2,345
1374,7612,36087013401,0,1,41.028,-73.952,2,138
1375,7613,36087013402,0,1,41.021,-73.919,3,345
1376,7614,36089490100,0,8,44.974,-74.847,2,138
1377,7619,36089490600,0,9,44.832,-74.947,2,138
1378,7627,36089491400,0,9,44.712,-75.457,2,138
1379,7633,36089492000,0,9,44.556,-75.157,2,138
1380,7635,36089492300,0,9,44.498,-74.871,3,138
1381,7638,36089492600,0,9,44.309,-75.256,2,138
1382,7642,36091060101,0,6,43.236,-73.677,2,138
1383,7645,36091060300,0,6,43.226,-73.886,2,138
1384,7646,36091060400,0,6,43.246,-73.831,3,138
1385,7647,36091060501,0,6,43.336,-73.904,2,138
1386,7652,36091060701,0,6,43.155,-73.72,2,138
1387,7653,36091060702,0,6,43.132,-73.756,2,138
1388,7657,36091061000,0,6,43.08,-73.784,2,138
1389,7659,36091061200,0,6,43.078,-73.792,2,138
1390,7661,36091061302,0,6,43.066,-73.825,4,138
1391,7662,36091061303,0,6,43.101,-73.783,2,138
1392,7670,36091061800,0,6,43.008,-73.853,1,138
1393,7672,36091061903,0,6,42.956,-73.777,2,138
1394,7681,36091062501,0,6,42.911,-73.799,3,138
1395,7687,36091062509,0,6,42.874,-73.805,1,138
1396,7697,36093020600,0,6,42.801,-73.91,2,138
1397,7706,36093021600,0,6,42.793,-73.936,3,138
1398,7707,36093021700,0,6,42.791,-73.921,2,138
1399,7711,36093032101,0,6,42.816,-73.875,4,345
1400,7722,36093032602,0,6,42.833,-74.034,4,138
1401,7733,36093033400,0,6,42.817,-73.923,1,138
1402,7736,36095740200,0,6,42.684,-74.447,2,138
1403,7738,36095740400,0,6,42.745,-74.542,3,138
1404,7739,36095740500,0,6,42.601,-74.583,1,138
1405,7743,36097950100,0,4,42.467,-76.783,2,138
1406,7744,36097950200,0,4,42.42,-76.939,3,138
1407,7746,36097950400,0,4,42.337,-76.909,2,138
1408,7748,36099950100,0,4,42.984,-76.849,2,138
1409,7751,36099950400,0,4,42.912,-76.827,2,138
1410,7752,36099950500,0,4,42.926,-76.883,3,138
1411,7754,36099950700,0,4,42.848,-76.845,2,138
1412,7755,36099950800,0,4,42.746,-76.834,2,138
1413,7758,36101960100,0,4,42.523,-77.199,2,138
1414,7760,36101960300,0,4,42.516,-77.481,4,138
1415,7763,36101960600,0,4,42.335,-77.678,1,138
1416,7764,36101960700,0,4,42.332,-77.659,3,138
1417,7769,36101961200,0,4,42.348,-77.307,1,138
1418,7771,36101961400,0,4,42.409,-77.23,2,138
1419,7780,36101962300,0,4,42.138,-77.141,1,138
1420,7789,36103110102,0,7,40.861,-73.449,2,138
1421,7790,36103110200,0,7,40.883,-73.435,2,138
1422,7794,36103110501,0,7,40.888,-73.358,2,138
1423,7795,36103110502,0,7,40.874,-73.364,2,138
1424,7796,36103110600,0,7,40.904,-73.343,3,230
1425,7799,36103110901,0,7,40.864,-73.424,2,138
1426,7800,36103110902,0,7,40.853,-73.422,2,138
1427,7801,36103111001,0,7,40.868,-73.414,2,138
1428,7803,36103111100,0,7,40.838,-73.42,2,138
1429,7806,36103111300,0,7,40.872,-73.39,4,138
1430,7808,36103111402,0,7,40.841,-73.385,1,138
1431,7822,36103111900,0,7,40.82,-73.434,2,138
1432,7829,36103112206,0,7,40.78,-73.424,4,345
1433,7835,36103122300,0,7,40.737,-73.416,4,138
1434,7836,36103122403,0,7,40.748,-73.386,2,138
1435,7838,36103122405,0,7,40.765,-73.36,3,138
1436,7840,36103122501,0,7,40.747,-73.357,2,138
1437,7842,36103122601,0,7,40.756,-73.334,2,138
1438,7845,36103122704,0,7,40.765,-73.352,2,138
1439,7849,36103122801,0,7,40.756,-73.309,3,138
1440,7850,36103122802,0,7,40.739,-73.315,1,138
1441,7857,36103123201,0,7,40.715,-73.422,2,138
1442,7858,36103123202,0,7,40.704,-73.406,3,138
1443,7860,36103123302,0,7,40.693,-73.407,2,138
1444,7861,36103123401,0,7,40.707,-73.394,3,138
1445,7863,36103123500,0,7,40.679,-73.416,2,138
1446,7865,36103123701,0,7,40.686,-73.401,2,138
1447,7889,36103135002,0,7,40.869,-73.165,2,138
1448,7890,36103135003,0,7,40.872,-73.146,2,138
1449,7899,36103135205,0,7,40.821,-73.283,2,138
1450,7901,36103135209,0,7,40.817,-73.25,4,230
1451,7905,36103135401,0,7,40.843,-73.161,3,138
1452,7908,36103145602,0,7,40.793,-73.256,2,138
1453,7910,36103145604,0,7,40.784,-73.255,2,138
1454,7912,36103145701,0,7,40.813,-73.214,3,230
1455,7914,36103145703,0,7,40.795,-73.216,3,138
1456,7921,36103145901,0,7,40.757,-73.286,1,138
1457,7922,36103145902,0,7,40.762,-73.271,2,138
1458,7925,36103146002,0,7,40.755,-73.254,2,138
1459,7927,36103146102,0,7,40.757,-73.239,2,138
1460,7929,36103146105,0,7,40.771,-73.231,2,138
1461,7930,36103146106,0,7,40.769,-73.239,2,138
1462,7944,36103146606,0,7,40.771,-73.135,1,138
1463,7945,36103146607,0,7,40.774,-73.096,2,138
1464,7950,36103146614,0,7,40.799,-73.061,1,138
1465,7976,36103147804,0,7,40.755,-73.072,1,138
1466,7977,36103147901,0,7,40.758,-73.052,2,138
1467,7979,36103158001,0,7,40.953,-73.119,2,138
1468,7980,36103158002,0,7,40.931,-73.133,2,138
1469,7981,36103158006,0,7,40.889,-73.126,2,138
1470,7982,36103158007,0,7,40.91,-73.121,3,138
1471,7985,36103158011,0,7,40.908,-73.087,2,138
1472,7997,36103158202,0,7,40.926,-73.065,3,138
1473,8000,36103158206,0,7,40.942,-73.068,2,138
1474,8016,36103158402,0,7,40.954,-72.88,1,138
1475,8020,36103158408,0,7,40.954,-72.918,2,138
1476,8033,36103158605,0,7,40.823,-73.07,2,230
1477,8043,36103158710,0,7,40.876,-72.875,1,138
1478,8049,36103158900,0,7,40.768,-73.022,2,138
1479,8051,36103159102,0,7,40.775,-72.985,3,138
1480,8054,36103159106,0,7,40.808,-72.925,3,138
1481,8056,36103159108,0,7,40.809,-72.974,1,138
1482,8079,36103169704,0,7,40.924,-72.762,4,138
1483,8080,36103169800,0,7,40.925,-72.669,2,138
1484,8111,36105950200,0,9,41.939,-74.797,2,230
1485,8114,36105950500,0,9,41.824,-74.738,2,230
1486,8117,36105950800,0,1,41.784,-74.624,2,230
1487,8120,36105951100,0,1,41.7,-74.553,3,230
1488,8121,36105951200,0,1,41.588,-74.435,2,138
1489,8122,36105951300,0,1,41.585,-74.521,3,138
1490,8129,36105952100,0,9,41.76,-75.004,2,138
1491,8130,36105952200,0,9,41.679,-74.994,2,138
1492,8131,36105952300,0,9,41.584,-74.983,2,138
1493,8132,36105952400,0,9,41.539,-74.889,2,138
1494,8133,36105952500,0,1,41.493,-74.812,2,138
1495,8134,36107020100,0,4,42.296,-76.177,2,138
1496,8135,36107020200,0,4,42.232,-76.332,2,138
1497,8136,36107020300,0,4,42.133,-76.182,2,138
1498,8157,36109001400,0,4,42.446,-76.391,3,138
1499,8158,36109001500,0,4,42.507,-76.47,3,138
1500,8159,36109001600,0,4,42.518,-76.623,1,138
1501,8162,36109001900,0,4,42.355,-76.379,2,138
1502,8163,36109002000,0,4,42.475,-76.297,2,138
1503,8164,36109002100,0,4,42.522,-76.345,4,138
1504,8165,36109002200,0,4,42.588,-76.337,2,138
1505,8167,36111950100,0,1,42.125,-73.992,3,138
1506,8168,36111950200,0,1,42.076,-73.952,2,138
1507,8169,36111950300,0,1,42.053,-73.955,2,138
1508,8174,36111951000,0,1,41.946,-74.267,2,138
1509,8177,36111951300,0,1,41.995,-73.975,2,138
1510,8178,36111951400,0,1,41.961,-73.984,5,138
1511,8181,36111951700,0,1,41.927,-73.982,2,138
1512,8190,36111952600,0,1,41.838,-73.996,2,138
1513,8206,36111954500,0,1,41.716,-74.342,1,138
1514,8208,36111954700,0,1,41.729,-74.482,2,138
1515,8209,36111954800,0,1,41.721,-74.397,3,138
1516,8210,36111954900,0,1,42.037,-73.969,2,138
1517,8211,36111955000,0,1,41.835,-74.308,2,138
1518,8212,36111955300,0,1,42.054,-74.371,2,138
1519,8216,36113070300,0,6,43.317,-73.657,3,138
1520,8217,36113070400,0,6,43.32,-73.639,2,138
1521,8218,36113070500,0,6,43.311,-73.631,3,345
1522,8221,36113070701,0,6,43.337,-73.664,2,138
1523,8225,36113071000,0,6,43.326,-73.803,2,138
1524,8243,36115088000,0,6,43.229,-73.56,2,138
1525,8255,36117020302,0,2,43.08,-77.283,2,138
1526,8257,36117020402,0,2,43.217,-77.192,2,138
1527,8258,36117020500,0,2,43.163,-77.194,3,138
1528,8259,36117020600,0,2,43.085,-77.189,2,138
1529,8261,36117020800,0,2,43.252,-77.048,2,138
1530,8264,36117021100,0,4,43.042,-77.109,2,138
1531,8265,36117021200,0,4,43.038,-77.083,2,138
1532,8266,36117021400,0,4,43.064,-76.993,2,138
1533,8267,36117021501,0,2,43.243,-76.889,2,138
1534,8268,36117021502,0,2,43.269,-76.769,5,138
1535,8269,36117021600,0,2,43.168,-76.829,2,138
1536,8270,36117021700,0,4,43.074,-76.836,2,138
1537,8271,36117021800,0,4,43.084,-76.871,2,138
1538,8275,36119000201,0,11,40.92,-73.899,3,230
1539,8277,36119000203,0,11,40.915,-73.904,2,138
1540,8278,36119000300,0,11,40.932,-73.896,3,230
1541,8279,36119000401,0,11,40.937,-73.898,4,138
1542,8280,36119000402,0,11,40.944,-73.897,3,138
1543,8281,36119000500,0,11,40.939,-73.889,2,138
1544,8282,36119000600,0,11,40.944,-73.889,4,138
1545,8284,36119000702,0,11,40.969,-73.889,3,138
1546,8285,36119000801,0,11,40.961,-73.881,2,138
1547,8286,36119000802,0,11,40.957,-73.876,3,345
1548,8287,36119000803,0,11,40.952,-73.886,2,138
1549,8288,36119000900,0,11,40.974,-73.87,4,345
1550,8289,36119001000,0,11,40.937,-73.885,2,138
1551,8291,36119001102,0,11,40.931,-73.884,2,138
1552,8294,36119001302,0,11,40.912,-73.889,2,138
1553,8295,36119001303,0,11,40.915,-73.894,2,138
1554,8303,36119001600,0,11,40.943,-73.876,2,138
1555,8304,36119001700,0,11,40.949,-73.863,2,138
1556,8305,36119001800,0,11,40.959,-73.867,4,345
1557,8306,36119001900,0,11,40.965,-73.866,3,345
1558,8308,36119002101,0,11,40.978,-73.835,2,138
1559,8310,36119002104,0,11,40.962,-73.836,4,138
1560,8312,36119002106,0,11,40.974,-73.828,2,138
1561,8314,36119002201,0,11,40.955,-73.835,3,138
1562,8315,36119002202,0,11,40.946,-73.842,2,138
1563,8318,36119002300,0,11,40.938,-73.862,2,138
1564,8321,36119002403,0,11,40.92,-73.851,2,138
1565,8322,36119002404,0,11,40.924,-73.856,3,138
1566,8323,36119002405,0,11,40.927,-73.861,2,138
1567,8324,36119002600,0,11,40.896,-73.828,4,345
1568,8327,36119002900,0,11,40.906,-73.84,2,138
1569,8328,36119003000,0,11,40.909,-73.844,2,138
1570,8331,36119003300,0,11,40.906,-73.825,4,138
1571,8333,36119003500,0,11,40.911,-73.848,3,138
1572,8336,36119003800,0,11,40.924,-73.839,2,138
1573,8338,36119004000,0,11,40.915,-73.832,2,138
1574,8339,36119004100,0,11,40.915,-73.82,2,138
1575,8340,36119004200,0,11,40.921,-73.825,2,138
1576,8342,36119004400,0,11,40.928,-73.824,2,138
1577,8343,36119004500,0,11,40.931,-73.836,2,138
1578,8344,36119004600,0,11,40.941,-73.834,6,138
1579,8345,36119004700,0,11,40.939,-73.824,2,138
1580,8348,36119005001,0,11,40.977,-73.802,2,138
1581,8349,36119005002,0,11,40.967,-73.807,2,138
1582,8350,36119005100,0,11,40.955,-73.813,3,138
1583,8351,36119005200,0,11,40.942,-73.809,2,138
1584,8352,36119005300,0,11,40.916,-73.807,2,138
1585,8358,36119005901,0,11,40.908,-73.777,2,138
1586,8359,36119005902,0,11,40.908,-73.769,2,138
1587,8361,36119006100,0,11,40.905,-73.793,1,138
1588,8366,36119006600,0,11,40.93,-73.797,2,138
1589,8370,36119006900,0,11,40.956,-73.753,2,138
1590,8371,36119007000,0,11,40.936,-73.762,2,138
1591,8372,36119007100,0,11,40.926,-73.753,2,138
1592,8374,36119007300,0,11,40.958,-73.74,2,138
1593,8380,36119007800,0,11,40.992,-73.666,2,138
1594,8381,36119007900,0,11,40.999,-73.674,2,138
1595,8382,36119008000,0,11,41.002,-73.664,2,138
1596,8386,36119008302,0,11,41.033,-73.687,2,138
1597,8387,36119008401,0,11,40.976,-73.726,2,138
1598,8389,36119008404,0,11,40.965,-73.715,2,138
1599,8391,36119008602,0,11,41.047,-73.722,2,138
1600,8392,36119008700,0,11,41.043,-73.745,3,138
1601,8393,36119008800,0,11,41.035,-73.758,2,138
1602,8394,36119008901,0,11,41.043,-73.766,2,138
1603,8395,36119008902,0,11,41.053,-73.757,2,138
1604,8396,36119009000,0,11,41.041,-73.773,2,138
1605,8398,36119009200,0,11,41.023,-73.777,4,138
1606,8399,36119009300,0,11,41.03,-73.77,2,138
1607,8400,36119009400,0,11,41.029,-73.762,4,138
1608,8402,36119009600,0,11,41.012,-73.767,2,138
1609,8403,36119009701,0,11,41.002,-73.755,2,138
1610,8404,36119009702,0,11,41.021,-73.745,3,138
1611,8405,36119009703,0,11,41.002,-73.736,2,138
1612,8406,36119009800,0,11,40.979,-73.762,2,138
1613,8408,36119010000,0,11,41.004,-73.793,2,138
1614,8409,36119010100,0,11,40.984,-73.799,2,138
1615,8410,36119010200,0,11,40.991,-73.871,3,345
1616,8411,36119010300,0,11,40.988,-73.882,2,138
1617,8412,36119010400,0,11,41.017,-73.87,3,138
1618,8413,36119010500,0,11,41.011,-73.862,2,138
1619,8415,36119010701,0,11,40.995,-73.84,4,138
1620,8416,36119010702,0,11,41.001,-73.809,3,138
1621,8417,36119010801,0,11,41.019,-73.814,2,138
1622,8418,36119010803,0,11,41.031,-73.798,2,138
1623,8419,36119010804,0,11,41.02,-73.792,2,138
1624,8420,36119010901,0,11,41.061,-73.792,2,138
1625,8421,36119010902,0,11,41.05,-73.782,2,138
1626,8422,36119010903,0,11,41.043,-73.804,3,138
1627,8423,36119011000,0,11,41.069,-73.815,2,138
1628,8424,36119011101,0,11,41.055,-73.834,2,138
1629,8426,36119011200,0,11,41.054,-73.814,3,230
1630,8427,36119011300,0,11,41.035,-73.858,2,138
1631,8428,36119011400,0,11,41.066,-73.854,2,230
1632,8429,36119011500,0,11,41.074,-73.861,3,138
1633,8430,36119011600,0,11,41.085,-73.864,2,138
1634,8432,36119011800,0,11,41.125,-73.819,3,138
1635,8433,36119011902,0,11,41.083,-73.784,3,138
1636,8434,36119012000,0,11,41.103,-73.794,3,138
1637,8436,36119012102,0,11,41.12,-73.776,2,138
1638,8437,36119012200,0,11,41.138,-73.783,3,138
1639,8438,36119012301,0,11,41.069,-73.76,2,138
1640,8439,36119012303,0,11,41.127,-73.718,2,138
1641,8443,36119012502,0,1,41.28,-73.583,3,138
1642,8445,36119012600,0,10,41.253,-73.653,2,138
1643,8447,36119012802,0,10,41.231,-73.7,3,138
1644,8449,36119013000,0,10,41.204,-73.739,2,138
1645,8450,36119013102,0,11,41.166,-73.74,2,138
1646,8453,36119013201,0,11,41.136,-73.843,2,138
1647,8454,36119013202,0,11,41.155,-73.837,2,138
1648,8455,36119013301,0,11,41.161,-73.866,4,138
1649,8456,36119013304,0,11,41.148,-73.863,2,138
1650,8457,36119013400,0,11,41.161,-73.851,2,138
1651,8458,36119013500,0,11,41.172,-73.844,2,138
1652,8459,36119013600,0,11,41.174,-73.866,2,138
1653,8460,36119013700,0,11,41.179,-73.846,2,138
1654,8462,36119013900,0,1,41.21,-73.893,3,138
1655,8463,36119014000,0,1,41.263,-73.945,2,138
1656,8464,36119014100,0,10,41.278,-73.929,5,138
1657,8467,36119014400,0,10,41.299,-73.905,2,138
1658,8468,36119014500,0,10,41.284,-73.91,2,138
1659,8469,36119014604,0,1,41.249,-73.944,3,138
1660,8470,36119014605,0,1,41.241,-73.919,2,138
1661,8473,36119014701,0,10,41.314,-73.927,2,138
1662,8474,36119014703,0,10,41.321,-73.877,2,138
1663,8477,36119014805,0,10,41.219,-73.809,2,138
1664,8480,36119014809,0,10,41.257,-73.785,2,138
1665,8488,36119015000,0,1,41.334,-73.575,2,138
1666,8489,36119981000,0,11,41.084,-73.811,5,138
1667,8491,36119983000,0,10,41.243,-73.677,2,138
1668,8493,36119985000,0,11,41.046,-73.7,2,138
1669,8495,36121970200,0,5,42.826,-78.249,2,345
1670,8503,36121971000,0,5,42.563,-78.386,4,138
1671,8506,36123150200,0,4,42.712,-77.076,2,138
1672,8508,36123150400,0,4,42.608,-77.115,2,138
1673,8513,PSEG Hudson Generating Station,0,3,40.748,-74.072,1,345
1674,8523,Bergen Generating Station,0,0,40.837,-74.024,1,230
1675,8748,34003006300,0,3,40.814,-73.991,1,138
1676,8750,34003007002,0,0,40.972,-73.949,1,138
1677,8767,34003015200,0,0,40.907,-73.977,1,138
1678,8773,34003017200,0,0,40.943,-74.134,1,345
1679,8839,34003036100,0,0,40.86,-74.056,1,230
1680,8864,34003044201,0,0,41.052,-74.133,1,138
1681,9563,34017010800,0,3,40.659,-74.103,2,345
1682,9599,34017014800,0,3,40.772,-74.046,2,230
1683,9611,34017015802,0,3,40.782,-74.014,1,138
1684,9654,34017032400,0,3,40.793,-74.013,1,138
1685,9829,34023003600,0,3,40.59,-74.22,1,138
1686,9969,34025803400,0,0,40.342,-74.077,1,138
1687,10395,34031256802,0,0,41.143,-74.335,1,138
1688,12280,42069110600,0,0,41.555,-75.51,1,345
1689,12673,42083420400,0,0,41.967,-78.634,1,138
1690,13557,42115032600,0,0,41.831,-75.867,1,138
1691,75578,9001070300,0,0,41.163,-73.209,1,230
1692,75580,9001070600,0,0,41.175,-73.189,1,138
1693,76428,50007002200,0,0,44.545,-73.153,1,138
1694,76453,Indian Point 2,0,1,41.27,-73.952,9,138
1695,76454,Indian Point 3,0,1,41.27,-73.952,5,230
1696,76455,Indian Point 3,0,1,41.27,-73.951,5,138
1697,76456,Oswego Harbor Power,0,2,43.458,-76.531,2,230
1698,76457,Charles Poletti,0,3,40.775,-73.91,8,138
1699,76458,James A Fitzpatrick,0,4,43.52,-76.407,3,138
1700,76460,Somerset Operating Co LLC,0,5,43.358,-78.604,3,138
1701,76462,Nine Mile Point Nuclear Station,0,4,43.52,-76.409,3,230
1702,76463,Bowline Point,0,1,41.203,-73.968,6,230
1703,76464,Bowline Point,0,1,41.203,-73.967,7,138
1704,76466,Roseton Generating Facility,0,1,41.573,-73.965,4,230
1705,76467,Roseton Generating Facility,0,1,41.573,-73.964,7,138
1706,76470,Selkirk Cogen,0,6,42.573,-73.858,4,138
1707,76472,Northport,0,7,40.923,-73.341,3,230
1708,76473,Northport,0,7,40.923,-73.34,5,138
1709,76475,Arthur Kill Generating Station,0,3,40.591,-74.199,5,138
1710,76476,E F Barrett,0,7,40.616,-73.647,6,138
1711,76478,Athens Generating Plant,0,6,42.272,-73.848,7,138
1712,76479,Blenheim Gilboa,0,6,42.441,-74.447,3,138
1713,76483,Astoria Generating Station,0,3,40.787,-73.912,4,230
1714,76484,Astoria Generating Station,0,3,40.787,-73.911,3,138
1715,76485,Bethpage Power Plant,0,7,40.746,-73.498,6,138
1716,76487,Empire Generating Co  LLC,0,6,42.624,-73.749,7,138
1717,76488,Ravenswood,0,3,40.758,-73.945,6,138
1718,76490,Astoria Energy,0,3,40.782,-73.895,6,138
1719,76491,500MW CC,0,3,40.788,-73.906,4,230
1720,76492,500MW CC,0,3,40.788,-73.905,5,138
1721,76493,Sithe Independence Station,0,4,43.494,-76.45,3,138
1722,76496,Astoria Gas Turbines,0,3,40.786,-73.904,4,230
1723,76497,Astoria Gas Turbines,0,3,40.786,-73.903,5,138
1724,76509,Saranac Facility,0,8,44.712,-73.455,3,138
1725,76514,Covanta Hempstead,0,7,40.738,-73.59,4,230
1726,76515,Covanta Hempstead,0,7,40.738,-73.589,3,138
1727,76517,Danskammer Generating Station,0,1,41.57,-73.974,4,230
1728,76518,Danskammer Generating Station,0,1,41.57,-73.973,7,138
1729,76526,Robert Moses Power Dam,0,0,45.003,-74.798,3,138
1730,76528,Holtsville,0,7,40.816,-73.065,3,138
1731,76530,Fortistar North Tonawanda,0,5,43.047,-78.853,8,138
1732,76533,Port Jefferson,0,7,40.949,-73.078,3,138
1733,76540,Rensselaer Cogen,0,6,42.624,-73.749,4,230
1734,76542,Lockport Energy Associates LP,0,5,43.161,-78.744,3,230
1735,76543,Lockport Energy Associates LP,0,5,43.161,-78.743,3,138
1736,76552,Shoemaker,0,1,41.427,-74.418,3,138
1737,76560,Stark,0,9,44.454,-74.76,2,138
1738,76563,Five Falls,0,9,44.526,-74.848,3,138
1739,76565,Gowanus Gas Turbines Generating,0,3,40.663,-74.004,4,138
1740,76582,36005001900,0,3,40.804,-73.924,9,138
1741,76654,36005046201,0,3,40.873,-73.826,6,138
1742,76655,36005046202,0,3,40.878,-73.833,4,138
1743,76684,36017970300,0,9,42.532,-75.526,4,138
1744,76702,36025970600,0,9,42.173,-75.126,5,230
1745,76703,36025970600,0,9,42.173,-75.125,3,138
1746,76735,36029010803,0,5,42.9,-78.741,7,138
1747,76779,36047001800,0,3,40.656,-74.009,5,138
1748,76862,36047044900,0,3,40.717,-73.93,7,138
1749,76951,36055013104,0,2,43.08,-77.632,9,138
1750,76980,36059407301,0,7,40.731,-73.597,6,138
1751,77029,36061006800,0,3,40.739,-73.983,3,138
1752,77032,36061007200,0,3,40.744,-73.98,4,230
1753,77033,36061007200,0,3,40.744,-73.979,4,138
1754,77037,36061008200,0,3,40.75,-73.98,3,138
1755,77042,36061009600,0,3,40.755,-73.98,7,138
1756,77053,36061013600,0,3,40.772,-73.948,4,230
1757,77054,36061013600,0,3,40.772,-73.947,3,138
1758,77056,36061013800,0,3,40.774,-73.953,4,138
1759,77094,36061025100,0,3,40.839,-73.939,4,230
1760,77095,36061025100,0,3,40.839,-73.938,6,138
1761,77098,36061027700,0,3,40.854,-73.926,6,138
1762,77121,36065023400,0,9,43.099,-75.288,6,138
1763,77157,36067014400,0,4,43.095,-76.096,7,138
1764,77161,36067015400,0,4,43.077,-76.016,4,230
1765,77162,36067015400,0,4,43.077,-76.015,3,138
1766,77179,36071011900,0,1,41.379,-74.36,4,138
1767,77196,36075021401,0,2,43.403,-76.554,6,138
1768,77197,36075021601,0,2,43.457,-76.515,5,138
1769,77200,36075021605,0,4,43.465,-76.488,4,138
1770,77224,36081010300,0,3,40.78,-73.914,5,138
1771,77231,36081014300,0,3,40.765,-73.911,2,138
1772,77233,36081014700,0,3,40.762,-73.91,4,138
1773,77236,36081016300,0,3,40.755,-73.909,4,138
1774,77254,36081025500,0,3,40.749,-73.907,5,138
1775,77335,36081079900,0,3,40.746,-73.826,8,138
1776,77359,36083051500,0,6,42.632,-73.744,5,138
1777,77390,36085029102,0,3,40.608,-74.186,8,138
1778,77394,36087010101,0,1,41.262,-74.02,3,138
1779,77395,36087010102,0,1,41.222,-73.995,4,230
1780,77401,36087011102,0,1,41.099,-73.947,4,138
1781,77410,36087013003,0,1,41.061,-73.933,2,138
1782,77411,36087013100,0,1,41.093,-73.922,3,138
1783,77412,36087013402,0,1,41.02,-73.918,3,138
1784,77426,36093032101,0,6,42.815,-73.874,10,138
1785,77445,36103110600,0,7,40.903,-73.342,4,138
1786,77450,36103112206,0,7,40.779,-73.423,5,138
1787,77465,36103135209,0,7,40.816,-73.249,4,138
1788,77470,36103145701,0,7,40.812,-73.213,2,138
1789,77498,36105951100,0,1,41.699,-74.552,3,138
1790,77523,36113070500,0,6,43.31,-73.63,7,138
1791,77535,36119000201,0,11,40.919,-73.898,5,138
1792,77537,36119000300,0,11,40.931,-73.895,6,138
1793,77540,36119000802,0,11,40.956,-73.875,7,138
1794,77541,36119000900,0,11,40.973,-73.869,5,230
1795,77542,36119000900,0,11,40.973,-73.868,7,138
1796,77548,36119001900,0,11,40.964,-73.865,3,230
1797,77555,36119002600,0,11,40.895,-73.827,4,230
1798,77556,36119002600,0,11,40.895,-73.826,6,138
1799,77583,36119010200,0,11,40.99,-73.87,2,138
1800,77590,36119011200,0,11,41.053,-73.813,3,138
1801,77593,36119011400,0,11,41.065,-73.853,3,138
1802,77626,PSEG Linden Generating Station,0,3,40.621,-74.206,1,345
1803,77627,PSEG Linden Generating Station,0,3,40.621,-74.205,1,230
1804,77635,Bergen Generating Station,0,0,40.837,-74.023,1,138
1805,77640,Linden Cogen Plant,0,3,40.631,-74.215,1,138
1806,78036,34017010800,0,3,40.658,-74.102,1,138
1807,78605,42015950900,0,0,41.756,-76.394,1,138
1808,78886,42049001100,0,0,42.103,-80.114,1,138
1809,78955,42069110600,0,0,41.554,-75.509,1,230
1810,95339,PJM Proxy,0,0,42.251,-79.764,1,345
1811,95340,Brentwood,0,0,40.781,-73.246,1,138
1812,95341,Bayswater Peaking Facility LLC,0,0,40.61,-73.761,1,138
1813,95342,Binghamton Cogen,0,0,42.107,-75.928,1,138
1814,100000,Empire Wind Farm 1,0,7,40.34319479,-73.9784616,1,138
1815,100001,Empire Wind Farm 2,0,7,40.29977794,-73.79749713,1,138
1816,100002,Sunrise Wind Farm,0,7,41.0783869,-71.67779232,1,138
1817,100003,Beacon Wind Farm,0,7,40.99444764,-70.99696633,1,138
1818,100004,South Fork Wind Farm,0,7,41.17679844,-71.77422986,1,138
